YEAR	DATE	TIME	Hour	STREET1	STREET2	OFFSET	ROAD_CLASS	District	LATITUDE	LONGITUDE	LOCCOORD	ACCLOC	TRAFFCTL	VISIBILITY	LIGHT	RDSFCOND	ACCLASS	IMPACTYPE	INVTYPE	INVAGE	INJURY	FATAL_NO	INITDIR	VEHTYPE	MANOEUVER	DRIVACT	DRIVCOND	PEDTYPE	PEDACT	PEDCOND	CYCLISTYPE	CYCACT	CYCCOND	PEDESTRIAN	CYCLIST	AUTOMOBILE	MOTORCYCLE	TRUCK	TRSN_CITY_VEH	EMERG_VEH	PASSENGER	SPEEDING	AG_DRIV	REDLIGHT	ALCOHOL	DISABILITY	Division
2015	2015-03-20T04:00:00.000Z	2010	20	ST CLAIR AVE W	ARLINGTON AVE	 	Major Arterial	Toronto and East York	43.681033	-79.428859	Intersection	At Intersection	Traffic Signal	Clear	"Dark, artificial"	Dry	Fatal	Pedestrian Collisions	Pedestrian	80 to 84	Fatal	14	South	 	 	 	 	Pedestrian involved in a collision with transit vehicle anywhere along roadway	Crossing with right of way	Medical or Physical Disability	 	 	 	Yes	 	 	 	 		 	 	 	Yes	 	 	 	13
2015	2015-04-04T04:00:00.000Z	2010	20	BROADVIEW AVE	GERRARD ST E	31 m North of	Minor Arterial	Toronto and East York	43.66582	-79.352763	Mid-Block	Non Intersection	No Control	Rain	"Dark, artificial"	Wet	Fatal	Pedestrian Collisions	Pedestrian	60 to 64	Fatal	17	Unknown	 	 	 	 	Pedestrian involved in a collision with transit vehicle anywhere along roadway	"Crossing, no Traffic Control"	Had Been Drinking	 	 	 	Yes	 	 	 	 		 	 	 	 	 	 	 	55
2016	2016-11-24T05:00:00.000Z	2010	20	300 GEORGE ST	 	 	Local	Toronto and East York	43.657778	-79.373676	Mid-Block	At/Near Private Drive	No Control	Clear	Dark	Wet	Fatal	Pedestrian Collisions	Pedestrian	70 to 74	Fatal	73	Unknown	 	 	 	 	Pedestrian hit at private driveway	Other	Unknown	 	 	 	Yes	 	Yes	 	 		 	 	 	 	 	 	 	51
2012	2012-12-20T05:00:00.000Z	2015	20	KENNEDY Rd	TREVERTON Dr	 	Major Arterial	Scarborough	43.733845	-79.26859	Intersection	 	No Control	Rain	"Dark, artificial"	Wet	Fatal	Pedestrian Collisions	Pedestrian	15 to 19	Fatal	44	Unknown	Other	Unknown	 	 	Pedestrian hit at mid-block	"Crossing, no Traffic Control"	Unknown	 	 	 	Yes	 	Yes	 	 		 	Yes	 	 	 	 	 	41
2016	2016-03-23T04:00:00.000Z	2015	20	KING ST E	PRINCESS ST	10 m East of	Major Arterial	Toronto and East York	43.651473	-79.367008	Mid-Block	Intersection Related	No Control	Freezing Rain	"Dark, artificial"	Wet	Fatal	Pedestrian Collisions	Pedestrian	75 to 79	Fatal	18	North	 	 	 	 	Pedestrian hit at mid-block	"Crossing, no Traffic Control"	Inattentive	 	 	 	Yes	 	Yes	 	 		 	 	 	 	 	 	 	51
2018	2018-10-08T04:00:00.000Z	2015	20	685 QUEEN ST E	 	Near #685	Major Arterial	Toronto and East York	43.658515	-79.35094	Intersection	At Intersection	No Control	Clear	"Dusk, artificial"	Dry	Fatal	Cyclist Collisions	Cyclist	60 to 64	Fatal	54	East	Bicycle	Going Ahead	 	 	 	 	 	Cyclist strikes a parked vehicle.	Lost control	Unknown	 	Yes	Yes	 	 		 	 	 	 	 	 	 	55
2014	2014-02-12T05:00:00.000Z	2017	20	ST CLAIR AVE E	HERRON AVE	 	Major Arterial	Scarborough	43.711142	-79.285129	Mid-Block	 	No Control	Clear	"Dark, artificial"	Ice	Fatal	Pedestrian Collisions	Pedestrian	15 to 19	Fatal	4	South	 	 	 	 	Pedestrian hit at mid-block	"Crossing, no Traffic Control"	Unknown	 	 	 	Yes	 	Yes	 	 		 	 	Yes	Yes	 	 	 	41
2008	2008-07-13T04:00:00.000Z	2018	20	19 LYNDHURST CRT	 	 	Local	Toronto and East York	43.677645	-79.41219	Mid-Block	 	No Control	Clear	Dusk	Dry	Fatal	Pedestrian Collisions	Pedestrian	85 to 89	Fatal	32	Unknown	Other	 	 	 	Vehicle is reversing and hits pedestrian	Other	Unknown	 	 	 	Yes	 	Yes	 	 		 	 	 	 	 	 	 	13
2010	2010-12-23T05:00:00.000Z	2027	20	BATHURST ST	BRIDGMAN AVE	 	Major Arterial	Toronto and East York	43.673945	-79.41469	Mid-Block	 	No Control	Clear	Dark	Dry	Fatal	Pedestrian Collisions	Pedestrian	40 to 44	Fatal	42	Unknown	Other	 	 	 	Pedestrian involved in a collision with transit vehicle anywhere along roadway	Playing or Working on Highway	Normal	 	 	 	Yes	 	 	 	 		 	Yes	 	Yes	 	 	 	"13,14"
2009	2009-07-06T04:00:00.000Z	2030	20	DON VALLEY PARKWAY  N	ST DENNIS DR	 	Expressway	North York	43.718745	-79.32799	Mid-Block	 	No Control	Clear	Daylight	Dry	Fatal	SMV Other	Passenger	20 to 24	Fatal	18	 	Other	 	 	 	 	 	 	 	 	 	 	 	Yes	 	 		 	Yes	Yes	Yes	 	 	 	54
2009	2009-07-06T04:00:00.000Z	2030	20	DON VALLEY PARKWAY  N	ST DENNIS DR	 	Expressway	North York	43.718745	-79.32799	Mid-Block	 	No Control	Clear	Daylight	Dry	Fatal	SMV Other	Driver	20 to 24	Fatal	19	North	"Automobile, Station Wagon"	Changing Lanes	Exceeding Speed Limit	Unknown	 	 	 	 	 	 	 	 	Yes	 	 		 	Yes	Yes	Yes	 	 	 	54
2008	2008-05-13T04:00:00.000Z	2030	20	EGLINTON AVE E	CREDIT UNION DR	 	Major Arterial	North York	43.725945	-79.31939	Mid-Block	 	No Control	Clear	Dark	Dry	Fatal	Approaching	Passenger	20 to 24	Fatal	18	 	Other	 	 	 	 	 	 	 	 	 	 	 	Yes	 	 		 	Yes	Yes	Yes	 	 	 	"33,54"
2008	2008-05-13T04:00:00.000Z	2030	20	EGLINTON AVE E	CREDIT UNION DR	 	Major Arterial	North York	43.725945	-79.31939	Mid-Block	 	No Control	Clear	Dark	Dry	Fatal	Approaching	Passenger	15 to 19	Fatal	19	 	Other	 	 	 	 	 	 	 	 	 	 	 	Yes	 	 		 	Yes	Yes	Yes	 	 	 	"33,54"
2016	2016-05-01T04:00:00.000Z	2033	20	AVENUE RD	FELBRIGGE AVE	 	Major Arterial	North York	43.734461	-79.419765	Mid-Block	Non Intersection	No Control	Rain	"Dark, artificial"	Wet	Fatal	Pedestrian Collisions	Pedestrian	90 to 94	Fatal	29	West	 	 	 	 	Vehicle is going straight thru inter.while ped cross without ROW	"Crossing, no Traffic Control"	Inattentive	 	 	 	Yes	 	Yes	 	 		 	 	 	 	 	 	 	32
2010	2010-07-13T04:00:00.000Z	2035	20	KIPLING AVE	BELFIELD RD	 	Major Arterial	Etobicoke York	43.704845	-79.56349	Intersection	At Intersection	Traffic Signal	Clear	Dark	Dry	Fatal	Angle	Driver	65 to 69	Fatal	23	South	"Automobile, Station Wagon"	Going Ahead	Disobeyed Traffic Control	Unknown	 	 	 	 	 	 	 	 	Yes	 	Yes		 	 	 	Yes	Yes	 	 	23
2015	2015-12-03T05:00:00.000Z	2038	20	KINGSTON RD	FAIRCROFT BLVD	119 m West of	Major Arterial	Scarborough	43.729457	-79.22742	Mid-Block	Non Intersection	No Control	Clear	"Dark, artificial"	Dry	Fatal	SMV Unattended Vehicle	Driver	30 to 34	Fatal	61	West	"Automobile, Station Wagon"	Going Ahead	Lost control	Inattentive	 	 	 	 	 	 	 	 	Yes	 	 		 	 	Yes	Yes	 	 	 	43
2018	2018-11-01T04:00:00.000Z	2043	20	KIPLING  AVE	ANNABELLE  DR	 	Major Arterial	Etobicoke York	43.750846	-79.58575	Intersection	At Intersection	Traffic Signal	Clear	Dark	Dry	Fatal	Pedestrian Collisions	Pedestrian	90 to 94	Fatal	59	West	 	 	 	 	Vehicle is going straight thru inter.while ped cross without ROW	Crossing without right of way	Normal	 	 	 	Yes	 	Yes	 	 		 	 	 	 	 	 	 	23
2010	2010-10-07T04:00:00.000Z	2044	20	DORIS AVE	HOLLYWOOD AVE	 	Minor Arterial	North York	43.765745	-79.40909	Mid-Block	 	Pedestrian Crossover	Clear	Dark	Dry	Fatal	Pedestrian Collisions	Pedestrian	40 to 44	Fatal	34	West	Other	 	 	 	Pedestrian hit a PXO/ped. Mid-block signal	"Crossing, Pedestrian Crossover"	Normal	 	 	 	Yes	 	Yes	 	 		 	 	 	Yes	 	 	 	32
2013	2013-08-03T04:00:00.000Z	2048	20	LAKE SHORE BLVD W	DOWLING S LAKESHORE W RAMP	 	Expressway	Toronto and East York	43.634444	-79.43909	Mid-Block	 	No Control	Clear	Dusk	Dry	Fatal	Other	Passenger	15 to 19	Fatal	28	 	 	 	 	 	 	 	 	 	 	 	 	 	 	 	Yes		 	Yes	 	 	 	 	 	14
2012	2012-04-21T04:00:00.000Z	2050	20	MORNINGSIDE AVE	MILNER AVE	 	Expressway	Scarborough	43.800245	-79.19909	Intersection	At Intersection	Traffic Signal	Clear	"Dark, artificial"	Dry	Fatal	Pedestrian Collisions	Pedestrian	55 to 59	Fatal	12	West	Other	 	 	 	Vehicle is going straight thru inter.while ped cross without ROW	Crossing without right of way	Inattentive	 	 	 	Yes	 	Yes	 	 		 	 	 	 	 	 	 	42
2015	2015-03-27T04:00:00.000Z	2053	20	EGLINTON AVE E	VICTORIA PARK AVE	3 m West of	Major Arterial	Scarborough	43.724711	-79.302638	Intersection	Non Intersection	No Control	Clear	"Dark, artificial"	Dry	Fatal	Pedestrian Collisions	Pedestrian	55 to 59	Fatal	12	Unknown	 	 	 	 	Vehicle is going straight thru inter.while ped cross without ROW	"Crossing, no Traffic Control"	Other	 	 	 	Yes	 	Yes	 	 		 	Yes	 	 	 	 	 	"33,54,41"
2018	2018-09-26T04:00:00.000Z	2053	20	3850 SHEPPARD AVE E	 	90 m East of ALLANFORD RD	Major Arterial	Scarborough	43.782229	-79.292499	Mid-Block	Non Intersection	No Control	Clear	"Dark, artificial"	Dry	Fatal	Pedestrian Collisions	Pedestrian	75 to 79	Fatal	52	South	 	 	 	 	Pedestrian hit at mid-block	"Crossing, no Traffic Control"	Inattentive	 	 	 	Yes	 	Yes	 	 		 	 	 	Yes	 	 	 	42
2017	2017-08-27T04:00:00.000Z	2054	20	6065 STEELES AVE E	 	 	Major Arterial	Scarborough	43.83705	-79.249019	Mid-Block	Non Intersection	No Control	Clear	Dark	Dry	Fatal	Pedestrian Collisions	Pedestrian	75 to 79	Fatal	38	North	 	 	 	 	Pedestrian hit at mid-block	Running onto Roadway	Inattentive	 	 	 	Yes	 	Yes	 	 		 	 	Yes	Yes	 	 	 	42
2016	2016-07-04T04:00:00.000Z	2055	20	KIPLING AVE	WESTHUMBER BLVD	 	Major Arterial	Etobicoke York	43.728129	-79.574641	Intersection	At Intersection	Traffic Signal	Clear	"Dusk, artificial"	Dry	Fatal	Pedestrian Collisions	Pedestrian	70 to 74	Fatal	40	Unknown	 	 	 	 	Vehicle turns left while ped crosses with ROW at inter.	Walking on Roadway with Traffic	Normal	 	 	 	Yes	 	Yes	 	 		 	 	Yes	Yes	 	 	 	23
2018	2018-08-10T04:00:00.000Z	2055	20	BELLAMY RD N	BRIMORTON DR	 	Minor Arterial	Scarborough	43.767378	-79.239131	Intersection	At Intersection	Traffic Signal	Clear	Daylight	Dry	Fatal	Angle	Motorcycle Driver	70 to 74	Fatal	41	West	Motorcycle	Going Ahead	Driving Properly	Unknown	 	 	 	 	 	 	 	 	Yes	Yes	 		 	 	 	Yes	Yes	 	 	43
2013	2013-04-12T04:00:00.000Z	2056	20	JANE ST	STONG CRT	 	Major Arterial	Etobicoke York	43.762446	-79.518886	Mid-Block	 	No Control	Rain	"Dark, artificial"	Wet	Fatal	Pedestrian Collisions	Pedestrian	50 to 54	Fatal	9	West	 	 	 	 	Pedestrian hit at mid-block	"Crossing, no Traffic Control"	Unknown	 	 	 	Yes	 	Yes	 	 		 	 	Yes	Yes	 	 	 	31
2011	2011-01-25T05:00:00.000Z	2058	20	BATHURST ST	FOREST RIDGE DR	 	Major Arterial	North York	43.706645	-79.42669	Mid-Block	 	No Control	Clear	Dark	Wet	Fatal	Pedestrian Collisions	Pedestrian	75 to 79	Fatal	4	West	Other	 	 	 	Pedestrian hit at mid-block	"Crossing, no Traffic Control"	Inattentive	 	 	 	Yes	 	Yes	 	 		 	 	 	Yes	 	 	 	"13,53"
2014	2014-09-22T04:00:00.000Z	2059	20	KING ST W	CLOSE AVE	 	Major Arterial	Toronto and East York	43.63745	-79.434711	Intersection	 	Pedestrian Crossover	Clear	"Dark, artificial"	Dry	Fatal	Pedestrian Collisions	Pedestrian	35 to 39	Fatal	29	Unknown	 	 	 	 	Pedestrian hit a PXO/ped. Mid-block signal	"Crossing, Pedestrian Crossover"	Unknown	 	 	 	Yes	 	Yes	 	 		 	 	 	Yes	 	 	 	14
2012	2012-12-18T05:00:00.000Z	2100	21	KINGSTON RD	BEECHGROVE DR	 	Major Arterial	Scarborough	43.776445	-79.17369	Intersection	At Intersection	No Control	Clear	Dark	Dry	Fatal	Pedestrian Collisions	Pedestrian	55 to 59	Fatal	42	North	Other	 	 	 	Pedestrian hit at mid-block	"Crossing, no Traffic Control"	Unknown	 	 	 	Yes	 	Yes	 	 		 	 	 	 	 	 	 	43
2013	2013-12-03T05:00:00.000Z	2100	21	MARKLAND DR	BLOOR ST W	 	Major Arterial	Etobicoke York	43.633544	-79.570766	Intersection	 	Traffic Signal	Clear	"Dark, artificial"	Dry	Fatal	Pedestrian Collisions	Pedestrian	85 to 89	Fatal	60	East	 	 	 	 	Vehicle turns left while ped crosses with ROW at inter.	Crossing with right of way	Normal	 	 	 	Yes	 	Yes	 	 		 	 	 	Yes	 	 	 	22
2008	2008-12-13T05:00:00.000Z	2101	21	SHEPPARD AVE E	MORNINGSIDE AVE	 	Major Arterial	Scarborough	43.802245	-79.19869	Mid-Block	 	No Control	Clear	Dark	Wet	Fatal	Turning Movement	Driver	30 to 34	Fatal	54	West	"Automobile, Station Wagon"	Turning Left	Improper Turn	Unknown	 	 	 	 	 	 	 	 	Yes	 	 		 	 	 	 	 	 	 	42
2015	2015-05-31T04:00:00.000Z	2104	21	BLOOR ST W	WESTMORELAND AVE	 	Major Arterial	Toronto and East York	43.660933	-79.430408	Intersection	 	No Control	Rain	Dusk	Wet	Fatal	Pedestrian Collisions	Pedestrian	35 to 39	Fatal	25	South	 	 	 	 	Pedestrian hit at mid-block	"Crossing, no Traffic Control"	Normal	 	 	 	Yes	 	Yes	 	 		 	 	Yes	Yes	 	 	 	14
2013	2013-07-03T04:00:00.000Z	2105	21	98 HAVENDALE RD	 	 	Collector	Scarborough	43.792746	-79.284488	Mid-Block	 	No Control	Clear	Dark	Dry	Fatal	SMV Other	Motorcycle Driver	25 to 29	Fatal	18	West	Motorcycle	Going Ahead	Lost control	Unknown	 	 	 	 	 	 	 	 	Yes	Yes	 		 	 	Yes	Yes	 	 	 	42
2014	2014-05-08T04:00:00.000Z	2108	21	RENFORTH DR	ERINGATE DR	 	Minor Arterial	Etobicoke York	43.660464	-79.583576	Mid-Block	 	No Control	Clear	"Dusk, artificial"	Dry	Fatal	Turning Movement	Motorcycle Driver	20 to 24	Fatal	8	North	Motorcycle	Going Ahead	Exceeding Speed Limit	Unknown	 	 	 	 	 	 	 	 	Yes	Yes	 		 	 	Yes	Yes	 	 	 	22
2012	2012-01-12T05:00:00.000Z	2110	21	FOREST GROVE DR	PAGE AVE	 	Local	North York	43.779645	-79.37889	Mid-Block	 	No Control	Clear	"Dark, artificial"	Wet	Fatal	Pedestrian Collisions	Pedestrian	80 to 84	Fatal	1	Unknown	Other	 	 	 	Vehicle is reversing and hits pedestrian	Other	Medical or Physical Disability	 	 	 	Yes	 	Yes	 	 		 	 	 	 	 	 	 	33
2015	2015-08-09T04:00:00.000Z	2110	21	MEADOWVALE RD	SHEPPARD AVE E	35 m North of	Collector	Scarborough	43.808852	-79.171031	Mid-Block	Intersection Related	No Control	Clear	"Dark, artificial"	Dry	Fatal	Pedestrian Collisions	Pedestrian	35 to 39	Fatal	36	Unknown	 	 	 	 	Pedestrian hit at mid-block	"Crossing, no Traffic Control"	Normal	 	 	 	Yes	 	Yes	 	 		 	 	 	 	 	 	 	42
2016	2016-04-09T04:00:00.000Z	2111	21	CUMMER AVE	WILLOWDALE AVE	 	Minor Arterial	North York	43.788653	-79.4099	Intersection	Intersection Related	Traffic Signal	Clear	Dark	Dry	Fatal	Angle	Driver	30 to 34	Fatal	25	West	"Automobile, Station Wagon"	Going Ahead	Disobeyed Traffic Control	Unknown	 	 	 	 	 	 	 	 	Yes	 	 		 	 	 	Yes	Yes	 	 	32
2013	2013-10-08T04:00:00.000Z	2115	21	STEELES AVE E	TURFF  AVE	 	Major Arterial	Scarborough	43.824481	-79.303623	Mid-Block	 	No Control	Clear	Dark	Dry	Fatal	Pedestrian Collisions	Pedestrian	80 to 84	Fatal	47	North	 	 	 	 	Pedestrian hit at mid-block	"Crossing, no Traffic Control"	Normal	 	 	 	Yes	 	Yes	 	 		 	Yes	 	 	 	 	 	42
2015	2015-05-27T04:00:00.000Z	2120	21	TANGAMO RD	MOFORD CRES	17 m North of	Local	Etobicoke York	43.69047	-79.559459	Intersection	Non Intersection	Stop Sign	Clear	"Dark, artificial"	Dry	Fatal	SMV Other	Driver	15 to 19	Fatal	24	South	"Automobile, Station Wagon"	Going Ahead	Other	Unknown	 	 	 	 	 	 	 	 	Yes	 	 		 	 	 	 	 	 	 	23
2008	2008-08-17T04:00:00.000Z	2125	21	WARDEN Aven	FINCH Aven E	 	Major Arterial	Scarborough	43.797845	-79.31619	Mid-Block	 	No Control	Clear	Dark	Dry	Fatal	Pedestrian Collisions	Pedestrian	45 to 49	Fatal	36	East	Other	Going Ahead	 	 	Pedestrian hit at mid-block	"Crossing, no Traffic Control"	"Ability Impaired, Alcohol"	 	 	 	Yes	 	Yes	 	 		 	 	 	 	 	 	 	42
2017	2017-09-27T04:00:00.000Z	2125	21	WARDEN AVE	CONTINENTAL PL	 	Major Arterial	Scarborough	43.763491	-79.301257	Intersection	At Intersection	No Control	Clear	Dark	Dry	Fatal	Pedestrian Collisions	Pedestrian	30 to 34	Fatal	43	East	 	 	 	 	Vehicle is going straight thru inter.while ped cross without ROW	"Crossing, no Traffic Control"	Unknown	 	 	 	Yes	 	Yes	 	 		 	 	Yes	Yes	 	 	 	41
2017	2017-09-27T04:00:00.000Z	2125	21	WARDEN AVE	CONTINENTAL PL	 	Major Arterial	Scarborough	43.763491	-79.301257	Intersection	At Intersection	No Control	Clear	Dark	Dry	Fatal	Pedestrian Collisions	Pedestrian	5 to 9	Fatal	44	East	 	 	 	 	Vehicle is going straight thru inter.while ped cross without ROW	"Crossing, no Traffic Control"	Unknown	 	 	 	Yes	 	Yes	 	 		 	 	Yes	Yes	 	 	 	41
2009	2009-03-25T04:00:00.000Z	2128	21	FRONT ST W	BLUE JAYS WAY	 	Minor Arterial	Toronto and East York	43.643445	-79.39129	Intersection	At Intersection	Traffic Signal	Rain	Dark	Wet	Fatal	Pedestrian Collisions	Pedestrian	25 to 29	Fatal	9	South	Other	 	 	 	Vehicle turns right while ped crosses with ROW at inter.	Crossing with right of way	Inattentive	 	 	 	Yes	 	 	 	Yes		 	 	 	Yes	 	 	 	52
2013	2013-03-05T05:00:00.000Z	2128	21	1420 VICTORIA PARK Ave	 	 	Major Arterial	Scarborough	43.721343	-79.301288	Mid-Block	 	No Control	Clear	"Dark, artificial"	Wet	Fatal	Pedestrian Collisions	Pedestrian	35 to 39	Fatal	7	East	 	 	 	 	Pedestrian hit at mid-block	"Crossing, no Traffic Control"	Had Been Drinking	 	 	 	Yes	 	Yes	 	 		 	 	 	Yes	 	 	 	"54,41"
2008	2008-02-24T05:00:00.000Z	2132	21	BATHURST ST	CARPENTER RD	 	Major Arterial	North York	43.788245	-79.44669	Mid-Block	 	No Control	Clear	Dark	Dry	Fatal	Approaching	Passenger	15 to 19	Fatal	8	 	Other	 	 	 	 	 	 	 	 	 	 	 	Yes	 	 		 	Yes	 	 	 	Yes	 	32
2012	2012-07-27T04:00:00.000Z	2133	21	KINGSTON RD	LAWRENCE AVE E	 	Major Arterial	Scarborough	43.767646	-79.189586	Intersection	At Intersection	Traffic Signal	Clear	"Dusk, artificial"	Dry	Fatal	Cyclist Collisions	Cyclist	15 to 19	Fatal	24	South	Bicycle	Going Ahead	 	 	 	 	 	"Cyclist without ROW rides into path of motorist at inter, lnwy, dwy-Cyclist not turn."	Disobeyed Traffic Control	Unknown	 	Yes	Yes	 	 		 	 	 	 	 	 	 	43
2017	2017-09-28T04:00:00.000Z	2135	21	4322 MCCOWAN RD	 	30 m South of	Major Arterial	Scarborough	43.829547	-79.274997	Mid-Block	Non Intersection	No Control	Clear	"Dark, artificial"	Dry	Fatal	Pedestrian Collisions	Pedestrian	70 to 74	Fatal	46	West	 	 	 	 	Pedestrian hit at mid-block	"Crossing, no Traffic Control"	Normal	 	 	 	Yes	 	Yes	 	 		 	 	 	 	 	 	 	42
2015	2015-07-14T04:00:00.000Z	2137	21	BUCKINGHAM AVE	DINNICK CRES	 	Local	North York	43.725703	-79.39442	Intersection	 	Stop Sign	Other	"Dark, artificial"	Other	Fatal	Pedestrian Collisions	Pedestrian	70 to 74	Fatal	34	North	 	 	 	 	Vehicle turns left while ped crosses with ROW at inter.	Crossing with right of way	Normal	 	 	 	Yes	 	Yes	 	 		 	 	 	Yes	 	 	 	53
2016	2016-04-25T04:00:00.000Z	2139	21	EGLINTON AVE E	BEACHELL ST	 	Major Arterial	Scarborough	43.742285	-79.222949	Mid-Block	Non Intersection	No Control	Rain	Dark	Wet	Fatal	Pedestrian Collisions	Pedestrian	60 to 64	Fatal	28	North	 	 	 	 	Pedestrian hit at mid-block	"Crossing, no Traffic Control"	Normal	 	 	 	Yes	 	Yes	 	 		 	 	 	 	 	 	 	43
2014	2014-01-19T05:00:00.000Z	2145	21	EGLINTON AVE W	NORTHCLIFFE BLVD	 	Major Arterial	 	43.69625	-79.447673	Intersection	At Intersection	Traffic Signal	Clear	"Dark, artificial"	Wet	Fatal	Pedestrian Collisions	Pedestrian	35 to 39	Fatal	1	South	 	 	 	 	Vehicle is going straight thru inter.while ped cross without ROW	Crossing without right of way	Unknown	 	 	 	Yes	 	Yes	 	 		 	 	 	 	 	 	 	13
2016	2016-03-31T04:00:00.000Z	2146	21	MARKHAM RD	NASHDENE RD	 	Major Arterial	Scarborough	43.820227	-79.246181	Intersection	Intersection Related	Traffic Signal	Rain	Dark	Wet	Fatal	Pedestrian Collisions	Pedestrian	55 to 59	Fatal	20	West	 	 	 	 	Vehicle turns left while ped crosses without ROW at inter.	Crossing without right of way	Inattentive	 	 	 	Yes	 	Yes	 	 		 	 	 	 	 	 	 	42
2009	2009-08-31T04:00:00.000Z	2150	21	BLOOR ST W	AVENUE RD	 	Major Arterial	Toronto and East York	43.668845	-79.393192	Mid-Block	 	No Control	Clear	Dark	Dry	Fatal	Pedestrian Collisions	Pedestrian	30 to 34	Fatal	23	West	 	 	 	 	Other / Undefined	Other	Had Been Drinking	 	 	 	Yes	 	Yes	 	 		 	 	 	 	 	 	 	"53,52"
2008	2008-09-08T04:00:00.000Z	2150	21	MARKHAM RD	NASHDENE RD	 	Major Arterial	Scarborough	43.819445	-79.24579	Mid-Block	 	No Control	Rain	Dark	Wet	Fatal	Pedestrian Collisions	Pedestrian	45 to 49	Fatal	38	West	Other	 	 	 	Pedestrian hit at mid-block	Running onto Roadway	Unknown	 	 	 	Yes	 	Yes	 	 		 	 	 	 	 	 	 	42
2015	2015-06-26T04:00:00.000Z	2150	21	2058 DUFFERIN ST	 	 	Major Arterial	Toronto and East York	43.686812	-79.446643	Mid-Block	 	No Control	Clear	"Dark, artificial"	Dry	Fatal	Pedestrian Collisions	Pedestrian	80 to 84	Fatal	32	West	 	 	 	 	Pedestrian hit at mid-block	"Crossing, no Traffic Control"	Normal	 	 	 	Yes	 	Yes	 	 		 	 	 	 	 	 	 	13
2012	2012-07-13T04:00:00.000Z	2151	21	EGLINTON AVE E	BRIMLEY RD	 	Major Arterial	Scarborough	43.736445	-79.24899	Mid-Block	 	No Control	Clear	"Dark, artificial"	Dry	Fatal	Pedestrian Collisions	Pedestrian	45 to 49	Fatal	21	North	Other	 	 	 	Pedestrian hit at mid-block	"Crossing, no Traffic Control"	Unknown	 	 	 	Yes	 	Yes	 	 		 	 	 	 	 	 	 	41
2018	2018-01-07T05:00:00.000Z	2151	21	STEELES AVE E	EASTVALE  DR	E of	Major Arterial	Scarborough	43.837935	-79.245151	Intersection	Intersection Related	No Control	Other	Dark	Other	Fatal	Pedestrian Collisions	Pedestrian	20 to 24	Fatal	4	North	 	 	 	 	Pedestrian hit at mid-block	"Crossing, no Traffic Control"	Unknown	 	 	 	Yes	 	Yes	 	 		 	 	 	 	 	 	 	42
2016	2016-11-28T05:00:00.000Z	2153	21	BLOOR ST E	PARLIAMENT ST	 	Major Arterial	Toronto and East York	43.671935	-79.370654	Intersection	At Intersection	Traffic Signal	Clear	Dark	Dry	Fatal	SMV Other	Passenger	25 to 29	Fatal	74	 	 	 	 	 	 	 	 	 	 	 	 	 	Yes	 	 		 	Yes	Yes	Yes	 	 	 	"51,53"
2008	2008-07-11T04:00:00.000Z	2155	21	STEELES AVE W	HIDDEN TRL	 	Major Arterial	North York	43.788445	-79.46399	Mid-Block	 	No Control	Clear	Dark	Dry	Fatal	Approaching	Driver	30 to 34	Fatal	30	East	"Automobile, Station Wagon"	Going Ahead	Lost control	Unknown	 	 	 	 	 	 	 	 	Yes	 	Yes		 	Yes	Yes	Yes	 	 	 	32
2013	2013-08-15T04:00:00.000Z	2201	22	WILLOWDALE AVE	OLIVE AVE	 	Minor Arterial	North York	43.780545	-79.40669	Intersection	At Intersection	No Control	Clear	"Dark, artificial"	Dry	Fatal	Turning Movement	Motorcycle Driver	20 to 24	Fatal	31	North	Motorcycle	Going Ahead	Exceeding Speed Limit	Unknown	 	 	 	 	 	 	 	 	Yes	Yes	 		 	 	Yes	Yes	 	 	 	32
2015	2015-05-13T04:00:00.000Z	2208	22	DANFORTH RD	BRIMLEY RD	 	Major Arterial	Scarborough	43.735163	-79.247379	Intersection	At Intersection	Traffic Signal	Clear	Dark	Dry	Fatal	Pedestrian Collisions	Pedestrian	30 to 34	Fatal	21	North	 	 	 	 	Vehicle is going straight thru inter.while ped cross without ROW	Crossing without right of way	Unknown	 	 	 	Yes	 	Yes	 	 		 	 	 	 	 	 	 	"41,43"
2012	2012-01-20T05:00:00.000Z	2214	22	SENECA HILL DR	DON MILLS RD	 	Collector	North York	43.790045	-79.35519	Mid-Block	 	No Control	Snow	Dark	Packed Snow	Fatal	SMV Other	Driver	85 to 89	Fatal	4	West	"Automobile, Station Wagon"	Going Ahead	Lost control	Unknown	 	 	 	 	 	 	 	 	Yes	 	 		 	 	 	 	 	 	 	33
2014	2014-08-07T04:00:00.000Z	2214	22	ST CLAIR AVE W	LANSDOWNE AVE	 	Major Arterial	Toronto and East York	43.675994	-79.45193	Mid-Block	 	No Control	Clear	"Dark, artificial"	Dry	Fatal	Pedestrian Collisions	Pedestrian	65 to 69	Fatal	20	Unknown	 	 	 	 	Pedestrian involved in a collision with transit vehicle anywhere along roadway	Coming From Behind Parked Vehicle	Unknown	 	 	 	Yes	 	 	 	 		 	 	 	 	 	 	 	13
2010	2010-08-20T04:00:00.000Z	2215	22	LAKE SHORE BLVD E	JOSEPH DUGGAN  RD	 	Major Arterial	Toronto and East York	43.664344	-79.306186	Intersection	 	Traffic Signal	Clear	Dark	Dry	Fatal	Pedestrian Collisions	Pedestrian	15 to 19	Fatal	29	North	Other	 	 	 	Pedestrian involved in a collision with transit vehicle anywhere along roadway	Crossing without right of way	Unknown	 	 	 	Yes	 	 	 	 		 	 	 	 	 	 	 	55
2012	2012-03-21T04:00:00.000Z	2215	22	JANE ST	NICKLE ST	 	Major Arterial	Etobicoke York	43.691545	-79.50099	Intersection	 	No Control	Clear	"Dark, artificial"	Dry	Fatal	Pedestrian Collisions	Pedestrian	75 to 79	Fatal	9	East	Other	 	 	 	Pedestrian hit at mid-block	"Crossing, no Traffic Control"	Normal	 	 	 	Yes	 	Yes	 	 		 	 	 	 	 	 	 	12
2017	2017-10-31T04:00:00.000Z	2223	22	STEELES AVE W	KEELE ST	 	Major Arterial	North York	43.781508	-79.494464	Intersection	At Intersection	Traffic Signal	Other	Dark	Other	Fatal	Turning Movement	Passenger	45 to 49	Fatal	51	 	 	 	 	 	 	 	 	 	 	 	 	 	Yes	 	 		 	Yes	 	Yes	 	 	 	31
2011	2011-03-24T04:00:00.000Z	2225	22	SHEPPARD AVE E	MURISON BLVD	 	Major Arterial	Scarborough	43.799145	-79.21289	Intersection	At Intersection	Traffic Signal	Clear	Dark	Dry	Fatal	Pedestrian Collisions	Pedestrian	20 to 24	Fatal	6	South	Other	 	 	 	Vehicle is going straight thru inter.while ped cross without ROW	Crossing without right of way	Normal	 	 	 	Yes	 	Yes	 	 		 	 	Yes	Yes	 	 	 	42
2013	2013-07-11T04:00:00.000Z	2225	22	WATSON ST	OLD KINGSTON RD	 	Minor Arterial	Scarborough	43.782145	-79.172488	Intersection	At Intersection	No Control	Clear	"Dark, artificial"	Dry	Fatal	Pedestrian Collisions	Pedestrian	45 to 49	Fatal	21	West	 	 	 	 	Vehicle turns left while ped crosses with ROW at inter.	Crossing with right of way	Normal	 	 	 	Yes	 	Yes	 	 		 	 	 	Yes	 	 	 	43
2008	2008-06-24T04:00:00.000Z	2226	22	WILSON AVE	JETHRO RD	 	Major Arterial	Etobicoke York	43.718745	-79.51839	Intersection	At Intersection	Traffic Signal	Clear	Dark	Dry	Fatal	Pedestrian Collisions	Pedestrian	75 to 79	Fatal	27	North	Other	 	 	 	Vehicle is going straight thru inter.while ped cross without ROW	Crossing without right of way	Unknown	 	 	 	Yes	 	Yes	 	 		 	 	Yes	Yes	 	 	 	31
2011	2011-07-01T04:00:00.000Z	2229	22	WARDEN AVE	HUNTINGWOOD DR	 	Major Arterial	Scarborough	43.786906	-79.311565	Mid-Block	 	No Control	Clear	Dark	Dry	Fatal	Pedestrian Collisions	Pedestrian	60 to 64	Fatal	12	West	Other	 	 	 	Pedestrian hit at mid-block	"Crossing, no Traffic Control"	Unknown	 	 	 	Yes	 	Yes	 	 		 	Yes	 	 	 	 	 	42
2016	2016-02-18T05:00:00.000Z	2230	22	MACDONELL AVE	LN n QUEEEN E FULLER	1 m South of	Local	Toronto East York	43.640776	-79.438091	Intersection	At Intersection	No Control	Clear	Dark	Dry	Fatal	Pedestrian Collisions	Pedestrian	70 to 74	Fatal	15	West	 	 	 	 	Vehicle is going straight thru inter.while ped cross without ROW	Crossing without right of way	Inattentive	 	 	 	Yes	 	 	 	 		 	 	 	 	 	 	 	11
2016	2016-09-01T04:00:00.000Z	2230	22	BAY ST	HARBOUR ST	 	Major Arterial	Toronto and East York	43.642066	-79.377452	Intersection	Intersection Related	Traffic Signal	Clear	"Dark, artificial"	Dry	Fatal	Turning Movement	Motorcycle Driver	30 to 34	Fatal	56	North	Motorcycle	Going Ahead	Driving Properly	Unknown	 	 	 	 	 	 	 	 	Yes	Yes	 		 	 	 	 	 	 	 	52
2017	2017-11-10T05:00:00.000Z	2233	22	WARDEN AVE	WAYNE AVE	147 M North	Major Arterial	Scarborough	43.738906	-79.292102	Mid-Block	Non Intersection	No Control	Clear	"Dark, artificial"	Dry	Fatal	Pedestrian Collisions	Pedestrian	55 to 59	Fatal	53	West	 	 	 	 	Pedestrian hit at mid-block	"Crossing, no Traffic Control"	Normal	 	 	 	Yes	 	Yes	 	 		 	 	 	 	 	 	 	41
2008	2008-10-24T04:00:00.000Z	2235	22	EGLINTON AVE E	SWIFT DR	 	Major Arterial	North York	43.726145	-79.31829	Intersection	At Intersection	Traffic Signal	Rain	Dark	Wet	Fatal	Pedestrian Collisions	Pedestrian	75 to 79	Fatal	48	North	Other	 	 	 	Vehicle is going straight thru inter.while ped cross without ROW	Crossing without right of way	Unknown	 	 	 	Yes	 	Yes	 	 		 	 	 	 	 	 	 	"33,54"
2010	2010-09-26T04:00:00.000Z	2235	22	HIGHWAY 27  N	VICE REGENT BLVD	 	Major Arterial	Etobicoke York	43.711345	-79.59279	Intersection	At Intersection	Stop Sign	Clear	Dark	Dry	Fatal	Turning Movement	Passenger	25 to 29	Fatal	32	 	Other	 	 	 	 	 	 	 	 	 	 	 	Yes	 	 		 	Yes	Yes	Yes	 	Yes	 	23
2018	2018-05-15T04:00:00.000Z	2237	22	LAKE SHORE BLVD W	THIRTEENTH ST	 	Major Arterial	Etobicoke York	43.599005	-79.512874	Intersection	Intersection Related	No Control	 	Dark	 	Fatal	Sideswipe	Passenger	25 to 29	Fatal	23	 	 	 	 	 	 	 	 	 	 	 	 	 	Yes	 	 		 	Yes	Yes	Yes	 	Yes	 	22
2013	2013-07-05T04:00:00.000Z	2248	22	MCCOWAN RD	LAWRENCE AVE E	 	Major Arterial	Scarborough	43.755545	-79.245387	Intersection	At Intersection	Traffic Signal	Clear	"Dark, artificial"	Dry	Fatal	Pedestrian Collisions	Pedestrian	75 to 79	Fatal	20	East	 	 	 	 	Vehicle is going straight thru inter.while ped cross without ROW	Crossing without right of way	Had Been Drinking	 	 	 	Yes	 	Yes	 	 		 	 	 	 	 	 	 	43
2010	2010-12-18T05:00:00.000Z	2256	22	MCCOWAN RD	MELDAZY DR	 	Major Arterial	Scarborough	43.763845	-79.24839	Mid-Block	 	No Control	Clear	Dark	Dry	Fatal	Approaching	Driver	55 to 59	Fatal	41	North	"Automobile, Station Wagon"	Going Ahead	Driving Properly	Inattentive	 	 	 	 	 	 	 	 	Yes	 	 		 	 	 	 	 	 	 	43
2010	2010-02-28T05:00:00.000Z	2300	23	VILLIERS ST	MUNITION ST	 	Local	Toronto and East York	43.648545	-79.34989	Mid-Block	 	No Control	Clear	Dark	Dry	Fatal	SMV Unattended Vehicle	Driver	50 to 54	Fatal	12	East	"Automobile, Station Wagon"	Going Ahead	Exceeding Speed Limit	Other	 	 	 	 	 	 	 	 	Yes	 	 		 	 	Yes	Yes	 	 	 	51
2017	2017-07-22T04:00:00.000Z	2305	23	SCARBOROUGH GOLF CLUB RD	LAWRENCE AVE E	95 m South of	Minor Arterial	Scarborough	43.760802	-79.215762	Mid-Block	Non Intersection	No Control	Clear	"Dark, artificial"	Dry	Fatal	Pedestrian Collisions	Pedestrian	80 to 84	Fatal	32	East	 	 	 	 	Pedestrian hit at mid-block	"Crossing, no Traffic Control"	Normal	 	 	 	Yes	 	Yes	 	 		 	Yes	 	 	 	 	 	43
2013	2013-06-06T04:00:00.000Z	2306	23	SPADINA AVE	GRANGE AVE	 	Major Arterial	Toronto and East York	43.651843	-79.397586	Intersection	 	No Control	Rain	"Dark, artificial"	Wet	Fatal	Pedestrian Collisions	Pedestrian	75 to 79	Fatal	16	West	 	 	 	 	Pedestrian hit at mid-block	Running onto Roadway	Unknown	 	 	 	Yes	 	Yes	 	 		 	 	 	 	 	 	 	"14,52"
2014	2014-08-17T04:00:00.000Z	2306	23	DAWES RD	GOWER ST	 	Minor Arterial	North York	43.702246	-79.296924	Intersection	At Intersection	Traffic Signal	Clear	"Dark, artificial"	Dry	Fatal	Pedestrian Collisions	Pedestrian	60 to 64	Fatal	22	West	 	 	 	 	Vehicle turns left while ped crosses with ROW at inter.	Crossing with right of way	Unknown	 	 	 	Yes	 	Yes	 	 		 	Yes	 	Yes	 	 	 	54
2018	2018-05-20T04:00:00.000Z	2307	23	364 WILSON AVE	VULCAN ST	 	Major Arterial	North York	43.736334	-79.438556	Mid-Block	Non Intersection	No Control	Clear	"Dark, artificial"	Dry	Fatal	Approaching	Driver	40 to 44	Fatal	26	West	"Automobile, Station Wagon"	Changing Lanes	Improper Lane Change	Inattentive	 	 	 	 	 	 	 	 	Yes	 	 		 	Yes	Yes	Yes	 	 	 	32
2015	2015-04-01T04:00:00.000Z	2308	23	F G GARDINER XY  W	STRACHAN AVE	 	Expressway	Toronto and East York	43.637427	-79.41212	Mid-Block	 	No Control	Clear	"Dark, artificial"	Dry	Fatal	SMV Other	Motorcycle Driver	unknown	Fatal	15	West	Motorcycle	Going Ahead	Exceeding Speed Limit	Unknown	 	 	 	 	 	 	 	 	 	Yes	 		 	 	Yes	Yes	 	 	 	14
2017	2017-10-04T04:00:00.000Z	2308	23	900 YORK MILLS RD	 	 	Major Arterial	North York	43.755549	-79.34798	Mid-Block	Non Intersection	No Control	Clear	Dark	Dry	Fatal	Pedestrian Collisions	Pedestrian	60 to 64	Fatal	48	East	 	 	 	 	Pedestrian hit on sidewalk or shoulder	On Sidewalk or Shoulder	Unknown	 	 	 	Yes	 	Yes	 	 		 	 	 	 	 	Yes	 	33
2010	2010-09-26T04:00:00.000Z	2309	23	LAKE SHORE BLVD W	COLBORNE LODGE DR	 	Major Arterial	Toronto and East York	43.637945	-79.45899	Intersection	At Intersection	Traffic Signal	Clear	Dark	Dry	Fatal	Cyclist Collisions	Cyclist	25 to 29	Fatal	33	South	Bicycle	Going Ahead	 	 	 	 	 	"Cyclist without ROW rides into path of motorist at inter, lnwy, dwy-Cyclist not turn."	Disobeyed Traffic Control	Had Been Drinking	 	Yes	Yes	 	 		 	 	 	 	 	 	 	11
2018	2018-02-17T05:00:00.000Z	2319	23	3230 BAYVIEW AVE	 	 	Major Arterial	North York	43.788287	-79.392772	Mid-Block	Non Intersection	No Control	 	Dark	 	Fatal	SMV Other	Driver	45 to 49	Fatal	10	West	"Automobile, Station Wagon"	Going Ahead	Exceeding Speed Limit	Unknown	 	 	 	 	 	 	 	 	Yes	 	 		 	 	Yes	Yes	 	 	 	"33,32"
2015	2015-06-13T04:00:00.000Z	2320	23	AVENUE RD	DAVENPORT RD	 	Major Arterial	Toronto and East York	43.674712	-79.396594	Intersection	At Intersection	Traffic Signal	Clear	"Dark, artificial"	Dry	Fatal	Cyclist Collisions	Cyclist	25 to 29	Fatal	31	South	Bicycle	Turning Left	 	 	 	 	 	Cyclist turned left across motorists path.	Failed to Yield Right of Way	Normal	 	Yes	Yes	 	 		 	 	 	 	 	 	 	53
2017	2017-08-24T04:00:00.000Z	2325	23	VICTORIA PARK AVE	CLINTWOOD GT	 	Major Arterial	Scarborough	43.748763	-79.312076	Intersection	At Intersection	No Control	Clear	"Dark, artificial"	Dry	Fatal	Pedestrian Collisions	Pedestrian	55 to 59	Fatal	36	Unknown	"Automobile, Station Wagon"	 	 	 	Vehicle is going straight thru inter.while ped cross without ROW	"Crossing, no Traffic Control"	Unknown	 	 	 	Yes	 	Yes	 	 		 	 	 	 	 	 	 	"33,41"
2008	2008-10-03T04:00:00.000Z	2327	23	F G GARDINER XY  E	ELLIS AVE	 	Expressway	Toronto and East York	43.636344	-79.466892	Mid-Block	 	No Control	Clear	Dark	Dry	Fatal	Rear End	Motorcycle Driver	35 to 39	Fatal	44	East	Motorcycle	Merging	Exceeding Speed Limit	Had Been Drinking	 	 	 	 	 	 	 	 	Yes	Yes	 		 	Yes	Yes	Yes	 	 	 	11
2008	2008-10-25T04:00:00.000Z	2329	23	DENISON RD E	JANE ST	 	Collector	Etobicoke York	43.696745	-79.50589	Mid-Block	 	Traffic Gate	Clear	Dark	Dry	Fatal	Pedestrian Collisions	Pedestrian	20 to 24	Fatal	49	East	Other	 	 	 	Pedestrian hit at mid-block	Other	Unknown	 	 	 	Yes	 	Yes	 	 		 	 	 	 	 	 	 	12
2017	2017-12-01T05:00:00.000Z	2330	23	BIRCHMOUNT RD	MERRYFIELD DR	 	Major Arterial	Scarborough	43.751868	-79.286601	Intersection	At Intersection	No Control	Clear	Dark	Dry	Fatal	Pedestrian Collisions	Pedestrian	65 to 69	Fatal	55	East	 	 	 	 	Vehicle is going straight thru inter.while ped cross without ROW	"Crossing, no Traffic Control"	Normal	 	 	 	Yes	 	Yes	 	 		 	 	 	 	 	 	 	41
2015	2015-12-30T05:00:00.000Z	2339	23	DANFORTH AVE	GILLARD AVE	 	Major Arterial	Toronto and East York	43.682341	-79.328265	Intersection	At Intersection	No Control	Clear	"Dark, artificial"	Dry	Fatal	Pedestrian Collisions	Pedestrian	60 to 64	Fatal	64	South	 	 	 	 	Vehicle is going straight thru inter.while ped cross with ROW	"Crossing, no Traffic Control"	Normal	 	 	 	Yes	 	Yes	 	 		 	 	 	Yes	 	 	 	"54,55"
2018	2018-04-21T04:00:00.000Z	2341	23	SEWELLS RD	HUPFIELD TRL	 	Minor Arterial	Scarborough	43.814105	-79.213535	Mid-Block	Non Intersection	No Control	Clear	"Dark, artificial"	Dry	Fatal	SMV Other	Driver	25 to 29	Fatal	20	East	"Automobile, Station Wagon"	Going Ahead	Lost control	Unknown	 	 	 	 	 	 	 	 	Yes	 	 		 	 	Yes	Yes	 	 	 	42
2012	2012-08-25T04:00:00.000Z	2350	23	MARILAKE DR	SUMMERGLADE DR	 	Local	Scarborough	43.780945	-79.27089	Mid-Block	 	No Control	Clear	"Dark, artificial"	Dry	Fatal	SMV Unattended Vehicle	Driver	20 to 24	Fatal	27	North	"Automobile, Station Wagon"	Going Ahead	Lost control	Unknown	 	 	 	 	 	 	 	 	Yes	 	 		 	 	Yes	Yes	 	 	 	42
2009	2009-10-17T04:00:00.000Z	2352	23	FINCH AVE W	TOBERMORY DR	 	Major Arterial	Etobicoke York	43.759245	-79.50789	Intersection	At Intersection	Traffic Signal	Clear	Dark	Dry	Fatal	Turning Movement	Passenger	60 to 64	Fatal	34	 	Other	 	 	 	 	 	 	 	 	 	 	 	Yes	 	 		 	Yes	Yes	Yes	 	Yes	 	31
2009	2009-10-17T04:00:00.000Z	2352	23	FINCH AVE W	TOBERMORY DR	 	Major Arterial	Etobicoke York	43.759245	-79.50789	Intersection	At Intersection	Traffic Signal	Clear	Dark	Dry	Fatal	Turning Movement	Passenger	40 to 44	Fatal	33	 	Other	 	 	 	 	 	 	 	 	 	 	 	Yes	 	 		 	Yes	Yes	Yes	 	Yes	 	31
2009	2009-10-17T04:00:00.000Z	2352	23	FINCH AVE W	TOBERMORY DR	 	Major Arterial	Etobicoke York	43.759245	-79.50789	Intersection	At Intersection	Traffic Signal	Clear	Dark	Dry	Fatal	Turning Movement	Passenger	20 to 24	Fatal	32	 	Other	 	 	 	 	 	 	 	 	 	 	 	Yes	 	 		 	Yes	Yes	Yes	 	Yes	 	31
2018	2018-05-04T04:00:00.000Z	2354	23	DIXON RD	27 S DIXON W RAMP	 	Major Arterial	Etobicoke York	43.688479	-79.583987	Mid-Block	Overpass or Bridge	No Control	 	Dark	 	Fatal	Pedestrian Collisions	Pedestrian	60 to 64	Fatal	22	North	 	 	 	 	Pedestrian hit at mid-block	"Crossing, no Traffic Control"	Unknown	 	 	 	Yes	 	Yes	 	 		 	 	 	 	 	 	 	23
2015	2015-09-30T04:00:00.000Z	2355	23	WILSON AVE	MURRAY RD	 	Major Arterial	North York	43.72959	-79.471462	Intersection	At Intersection	No Control	Clear	"Dark, artificial"	Dry	Fatal	Turning Movement	Motorcycle Passenger	20 to 24	Fatal	46	 	 	 	 	 	 	 	 	 	 	 	 	 	Yes	Yes	 		 	Yes	Yes	Yes	 	 	 	32
2017	2017-05-05T04:00:00.000Z	2359	23	MORNINGSIDE AVE	SEWELLS RD	north of	Minor Arterial	Scarborough	43.816607	-79.211665	Mid-Block	Non Intersection	No Control	Clear	"Dark, artificial"	 	Fatal	Approaching	Driver	70 to 74	Fatal	21	 	 	 	 	 	 	 	 	 	 	 	 	 	Yes	 	 		 	Yes	 	 	 	 	 	42
2013	2013-10-01T04:00:00.000Z	1006	10	GERRARD ST E	CARLAW AVE	 	Minor Arterial	Toronto and East York	43.667643	-79.342792	Intersection	At Intersection	Traffic Signal	Clear	Daylight	Dry	Fatal	Pedestrian Collisions	Pedestrian	55 to 59	Fatal	44	West	 	 	 	 	Vehicle turns right while ped crosses with ROW at inter.	Crossing with right of way	Unknown	 	 	 	Yes	 	 	 	Yes		 	 	 	Yes	 	 	 	55
2013	2013-11-24T05:00:00.000Z	1018	10	EGLINTON AVE E	OSWEGO RD	 	Major Arterial	Scarborough	43.737418	-79.244701	Mid-Block	Non Intersection	No Control	Clear	Daylight	Dry	Fatal	Approaching	Passenger	30 to 34	Fatal	57	 	 	 	 	 	 	 	 	 	 	 	 	 	Yes	 	 		 	Yes	Yes	Yes	 	 	 	43
2016	2016-02-13T05:00:00.000Z	1018	10	FINCH AVE W	TOBERMORY DR	450 m East of	Major Arterial	Etobicoke York	43.760237	-79.503604	Mid-Block	Non Intersection	No Control	Clear	Daylight	Dry	Fatal	Pedestrian Collisions	Pedestrian	70 to 74	Fatal	11	South	 	 	 	 	Vehicle is going straight thru inter.while ped cross without ROW	Running onto Roadway	Inattentive	 	 	 	Yes	 	Yes	 	 		 	Yes	 	 	 	 	 	31
2013	2013-10-30T04:00:00.000Z	1022	10	CHILTERN HILL RD	EGLINTON AVE W	 	Major Arterial	Toronto and East York	43.700518	-79.427753	Intersection	 	Stop Sign	Clear	Daylight	Dry	Fatal	Pedestrian Collisions	Pedestrian	Over 95	Fatal	50	West	 	 	 	 	Vehicle is going straight thru inter.while ped cross with ROW	Crossing with right of way	Unknown	 	 	 	Yes	 	Yes	 	 		 	 	 	Yes	 	 	 	13
2017	2017-02-23T05:00:00.000Z	1022	10	ADELAIDE ST W	BAY ST	 	Major Arterial	Toronto and East York	43.649821	-79.380771	Intersection	At Intersection	Traffic Signal	Clear	"Daylight, artificial"	Dry	Fatal	Pedestrian Collisions	Pedestrian	75 to 79	Fatal	8	East	 	 	 	 	Vehicle turns right while ped crosses with ROW at inter.	Crossing with right of way	Normal	 	 	 	Yes	 	Yes	 	 		 	 	 	Yes	 	 	 	52
2011	2011-01-11T05:00:00.000Z	1023	10	QUEEN ST W	BATHURST ST	 	Major Arterial	Toronto and East York	43.647245	-79.40389	Intersection	At Intersection	No Control	Clear	Daylight	Wet	Fatal	Pedestrian Collisions	Pedestrian	unknown	Fatal	1	North	Other	 	 	 	Pedestrian involved in a collision with transit vehicle anywhere along roadway	"Crossing, no Traffic Control"	Unknown	 	 	 	Yes	 	 	 	 		 	 	 	 	 	 	 	14
2014	2014-07-08T04:00:00.000Z	1024	10	MCNICOLL AVE	PHARMACY AVE	 	Minor Arterial	Scarborough	43.804114	-79.330722	Intersection	At Intersection	Traffic Signal	Clear	Daylight	Dry	Fatal	Angle	Passenger	85 to 89	Fatal	15	 	 	 	 	 	 	 	 	 	 	 	 	 	Yes	 	 		 	Yes	 	Yes	Yes	 	 	42
2014	2014-10-11T04:00:00.000Z	1024	10	LAWRENCE AVE W	ALLEN X N LAWRENCE RAMP	 	Expressway	North York	43.716307	-79.443202	Intersection	At Intersection	Traffic Signal	Clear	Daylight	Dry	Fatal	Pedestrian Collisions	Pedestrian	65 to 69	Fatal	34	South	 	 	 	 	Pedestrian involved in a collision with transit vehicle anywhere along roadway	Crossing with right of way	Normal	 	 	 	Yes	 	 	 	 		 	 	 	 	 	 	 	"32,13"
2008	2008-02-28T05:00:00.000Z	1025	10	BIRCHMOUNT RD	STEELES AVE E	 	Major Arterial	Scarborough	43.821345	-79.31689	Intersection	At Intersection	Traffic Signal	Clear	Daylight	Dry	Fatal	Angle	Driver	60 to 64	Fatal	12	East	"Automobile, Station Wagon"	Going Ahead	Driving Properly	Normal	 	 	 	 	 	 	 	 	Yes	 	 		 	 	 	Yes	Yes	 	 	42
2008	2008-10-02T04:00:00.000Z	1025	10	YONGE ST	BISHOP AVE	 	Major Arterial	North York	43.783245	-79.41639	Mid-Block	 	No Control	Clear	Daylight	Dry	Fatal	Pedestrian Collisions	Pedestrian	85 to 89	Fatal	43	West	Other	 	 	 	Pedestrian hit at mid-block	"Crossing, no Traffic Control"	Inattentive	 	 	 	Yes	 	Yes	 	 		 	 	 	 	 	 	 	32
2010	2010-05-25T04:00:00.000Z	1028	10	ORTON PARK RD	AMBOY RD	 	Minor Arterial	Scarborough	43.767545	-79.20709	Mid-Block	 	No Control	Clear	Daylight	Dry	Fatal	Approaching	Motorcycle Driver	50 to 54	Fatal	19	North	Motorcycle	Going Ahead	Driving Properly	Unknown	 	 	 	 	 	 	 	 	Yes	Yes	 		 	 	 	 	 	 	 	43
2018	2018-07-29T04:00:00.000Z	1029	10	144 NORSEMAN ST	 	 	Collector	Etobicoke York	43.633887	-79.520046	Mid-Block	Non Intersection	No Control	Clear	Daylight	Dry	Fatal	SMV Other	Motorcycle Driver	45 to 49	Fatal	38	East	Motorcycle	Going Ahead	Lost control	Unknown	 	 	 	 	 	 	 	 	 	Yes	 		 	 	 	 	 	 	 	22
2016	2016-02-01T05:00:00.000Z	1033	10	BIRMINGHAM ST	TWENTY FIRST ST	 	Collector	Etobicoke York	43.599963	-79.521175	Intersection	 	Pedestrian Crossover	Clear	Daylight	Dry	Fatal	Sideswipe	Driver	85 to 89	Fatal	9	West	"Automobile, Station Wagon"	Going Ahead	Lost control	Unknown	 	 	 	 	 	 	 	 	Yes	 	 		 	 	Yes	Yes	 	 	 	22
2015	2015-09-06T04:00:00.000Z	1034	10	LAKE SHORE BLVD W	JAMESON AVE	1 m West of	Expressway	Toronto and East York	43.633349	-79.435138	Mid-Block	Non Intersection	No Control	Clear	Daylight	Dry	Fatal	SMV Other	Motorcycle Driver	55 to 59	Fatal	42	East	Motorcycle	Going Ahead	Lost control	Unknown	 	 	 	 	 	 	 	 	 	Yes	 		 	 	 	 	 	 	 	14
2008	2008-08-09T04:00:00.000Z	1035	10	BALLIOL ST	MOUNT PLEASANT RD	 	Major Arterial	Toronto and East York	43.699245	-79.38669	Intersection	At Intersection	Stop Sign	Clear	Daylight	Dry	Fatal	Pedestrian Collisions	Pedestrian	80 to 84	Fatal	35	North	Other	 	 	 	Vehicle turns left while ped crosses with ROW at inter.	Crossing with right of way	Normal	 	 	 	Yes	 	Yes	 	Yes		 	Yes	 	Yes	 	 	 	53
2016	2016-09-29T04:00:00.000Z	1040	10	2336 ST CLAIR AVE W	 	 	Major Arterial	Etobicoke York	43.669959	-79.479152	Mid-Block	Non Intersection	No Control	Rain	Daylight	Wet	Fatal	Sideswipe	Driver	70 to 74	Fatal	58	West	"Automobile, Station Wagon"	Going Ahead	Driving Properly	Normal	 	 	 	 	 	 	 	 	Yes	 	 		 	Yes	Yes	Yes	 	 	 	"12,11"
2013	2013-02-02T05:00:00.000Z	1041	10	550 BIRCHMOUNT RD	 	 	Minor Arterial	Scarborough	43.711943	-79.270191	Mid-Block	 	No Control	Snow	Daylight	Wet	Fatal	Pedestrian Collisions	Pedestrian	65 to 69	Fatal	4	South	 	 	 	 	Pedestrian hit at private driveway	Crossing with right of way	Normal	 	 	 	Yes	 	Yes	 	 		 	 	 	Yes	 	 	 	41
2009	2009-04-17T04:00:00.000Z	1045	10	TOWNSLEY ST	OLD WESTON RD	 	Minor Arterial	Toronto and East York	43.674045	-79.46319	Intersection	 	Stop Sign	Clear	Daylight	Dry	Fatal	Pedestrian Collisions	Pedestrian	65 to 69	Fatal	12	North	Other	 	 	 	Vehicle is reversing and hits pedestrian	Other	Normal	 	 	 	Yes	 	Yes	 	 		 	 	 	 	 	 	 	12
2013	2013-02-06T05:00:00.000Z	1045	10	DUNDAS ST W	SHERIDAN AVE	 	Minor Arterial	Toronto and East York	43.649745	-79.433688	Intersection	At Intersection	Traffic Signal	Clear	Daylight	Dry	Fatal	Pedestrian Collisions	Pedestrian	80 to 84	Fatal	5	North	 	 	 	 	Vehicle is going straight thru inter.while ped cross without ROW	Crossing without right of way	Unknown	 	 	 	Yes	 	 	 	Yes		 	 	 	 	 	 	 	11
2013	2013-09-26T04:00:00.000Z	1050	10	BROADVIEW AVE	DUNDAS ST E	 	Major Arterial	Toronto and East York	43.662455	-79.351352	Intersection	 	Traffic Signal	Clear	Daylight	Dry	Fatal	Pedestrian Collisions	Pedestrian	90 to 94	Fatal	43	North	 	 	 	 	Vehicle turns left while ped crosses with ROW at inter.	Crossing with right of way	Normal	 	 	 	Yes	 	Yes	 	 		 	 	 	Yes	 	 	 	55
2017	2017-07-18T04:00:00.000Z	1054	10	EGLINTON AVE E	MIDLAND AVE	150 m West of	Major Arterial	Scarborough	43.734023	-79.260021	Mid-Block	Non Intersection	No Control	Clear	Daylight	Dry	Fatal	Pedestrian Collisions	Pedestrian	70 to 74	Fatal	30	Unknown	 	 	 	 	Pedestrian involved in a collision with transit vehicle anywhere along roadway	Person Getting on/off Vehicle	Normal	 	 	 	Yes	 	 	 	 		 	 	 	 	 	 	 	41
2010	2010-09-14T04:00:00.000Z	1055	10	SPADINA AVE	SULLIVAN ST	 	Major Arterial	Toronto and East York	43.650945	-79.39729	Intersection	 	No Control	Clear	Daylight	Dry	Fatal	Pedestrian Collisions	Pedestrian	80 to 84	Fatal	30	West	Other	 	 	 	Pedestrian involved in a collision with transit vehicle anywhere along roadway	"Crossing, no Traffic Control"	Unknown	 	 	 	Yes	 	 	 	 		 	 	 	 	 	 	 	"14,52"
2013	2013-08-18T04:00:00.000Z	1055	10	FINCH Ave E	MIDDLEFIELD Rd	 	Major Arterial	Scarborough	43.809844	-79.257686	Intersection	At Intersection	Traffic Signal	Clear	Daylight	Dry	Fatal	Pedestrian Collisions	Pedestrian	80 to 84	Fatal	32	North	 	 	 	 	Vehicle is going straight thru inter.while ped cross without ROW	Crossing marked crosswalk without ROW	Inattentive	 	 	 	Yes	 	Yes	 	 		 	 	 	 	 	 	 	42
2017	2017-08-26T04:00:00.000Z	1055	10	3738 ST CLAIR AVE E	 	 	Minor Arterial	Scarborough	43.720442	-79.243045	Mid-Block	Non Intersection	No Control	Clear	Daylight	Dry	Fatal	SMV Other	Driver	30 to 34	Fatal	37	East	"Automobile, Station Wagon"	Going Ahead	Lost control	"Ability Impaired, Drugs"	 	 	 	 	 	 	 	 	Yes	 	 		 	 	Yes	Yes	 	 	 	41
2017	2017-04-11T04:00:00.000Z	1056	10	WILSON AVE	DUFFERIN ST	10 m west	Major Arterial	North York	43.73202	-79.458873	Intersection	At Intersection	Traffic Signal	Clear	Daylight	Dry	Fatal	Pedestrian Collisions	Pedestrian	50 to 54	Fatal	16	East	 	 	 	 	Vehicle turns right while ped crosses with ROW at inter.	Crossing with right of way	Normal	 	 	 	Yes	 	 	 	Yes		 	 	 	Yes	 	 	 	32
2016	2016-10-02T04:00:00.000Z	1058	10	EGLINTON AVE E	WINTER AVE	 	Major Arterial	Scarborough	43.735331	-79.25436	Intersection	Intersection Related	Stop Sign	Clear	Daylight	Dry	Fatal	Pedestrian Collisions	Pedestrian	80 to 84	Fatal	60	South	 	 	 	 	Vehicle turns left while ped crosses without ROW at inter.	Crossing without right of way	Medical or Physical Disability	 	 	 	Yes	 	Yes	 	 		 	Yes	 	 	 	 	 	41
2015	2015-12-15T05:00:00.000Z	1100	11	JANE ST	SPEERS AVE	 	Major Arterial	Etobicoke York	43.701564	-79.503444	Intersection	At Intersection	No Control	Clear	Daylight	Dry	Fatal	Turning Movement	Passenger	80 to 84	Fatal	63	 	 	 	 	 	 	 	 	 	 	 	 	 	Yes	 	 		 	Yes	 	 	 	 	 	12
2016	2016-10-12T04:00:00.000Z	1109	11	DAVENPORT RD	OSSINGTON AVE	 	Minor Arterial	Toronto and East York	43.674712	-79.430972	Intersection	Intersection Related	Traffic Signal	Clear	Daylight	Dry	Fatal	Pedestrian Collisions	Pedestrian	Over 95	Fatal	64	North	 	 	 	 	Vehicle turns left while ped crosses with ROW at inter.	Crossing with right of way	Normal	 	 	 	Yes	 	Yes	 	 		 	 	 	Yes	 	 	 	13
2008	2008-08-26T04:00:00.000Z	1111	11	PLEWES RD	ANCASTER RD	 	Collector	North York	43.734645	-79.46599	Mid-Block	 	No Control	Clear	Daylight	Dry	Fatal	Pedestrian Collisions	Pedestrian	75 to 79	Fatal	37	South	Other	 	 	 	Vehicle is reversing and hits pedestrian	Other	Unknown	 	 	 	Yes	 	Yes	 	 		 	 	 	 	 	 	 	32
2011	2011-11-10T05:00:00.000Z	1111	11	DON VALLEY PARKWAY  S	BAYVIEW BLOOR DVP RAMP	 	Expressway	Toronto and East York	43.682345	-79.36239	Mid-Block	 	No Control	Clear	Daylight	Dry	Fatal	SMV Other	Driver	75 to 79	Fatal	31	South	"Automobile, Station Wagon"	Going Ahead	Lost control	Medical or Physical Disability	 	 	 	 	 	 	 	 	Yes	 	 		 	Yes	Yes	Yes	 	 	Yes	54
2016	2016-10-12T04:00:00.000Z	1117	11	EGLINTON AVE E	MIDLAND AVE	 	Major Arterial	Scarborough	43.734519	-79.258098	Intersection	Intersection Related	Traffic Signal	Clear	Daylight	Dry	Fatal	Pedestrian Collisions	Pedestrian	40 to 44	Fatal	63	Unknown	 	 	 	 	Pedestrian hit at mid-block	Playing or Working on Highway	Normal	 	 	 	Yes	 	Yes	 	 		 	 	Yes	Yes	Yes	 	 	41
2016	2016-07-05T04:00:00.000Z	1120	11	ALBION RD	ISLINGTON AVE	 	Major Arterial	Etobicoke York	43.737166	-79.565257	Intersection	At Intersection	Traffic Signal	Clear	Daylight	Dry	Fatal	Pedestrian Collisions	Pedestrian	55 to 59	Fatal	43	North	 	 	 	 	Pedestrian hit at mid-block	"Crossing, no Traffic Control"	Inattentive	 	 	 	Yes	 	Yes	 	 		 	 	 	 	 	 	 	23
2009	2009-09-29T04:00:00.000Z	1122	11	JANE ST	WILSON AVE	 	Major Arterial	North York	43.720945	-79.50859	Intersection	At Intersection	Traffic Signal	Rain	Daylight	Wet	Fatal	Pedestrian Collisions	Pedestrian	85 to 89	Fatal	30	East	Other	 	 	 	Pedestrian hit on sidewalk or shoulder	On Sidewalk or Shoulder	Medical or Physical Disability	 	 	 	Yes	 	 	 	Yes		 	 	 	 	 	 	 	31
2016	2016-01-14T05:00:00.000Z	1129	11	STEELES AVE E	PHARMACY AVE	 	Major Arterial	Scarborough	43.816844	-79.336467	Intersection	At Intersection	Traffic Signal	Clear	Daylight	Wet	Fatal	Turning Movement	Driver	35 to 39	Fatal	3	West	"Automobile, Station Wagon"	Turning Left	Failed to Yield Right of Way	Unknown	 	 	 	 	 	 	 	 	Yes	 	Yes		 	 	 	Yes	 	 	 	42
2017	2017-08-25T04:00:00.000Z	1130	11	DUNDAS ST W	GLADSTONE AVE	60 m East of	Minor Arterial	Toronto and East York	43.649501	-79.428958	Mid-Block	Non Intersection	No Control	Clear	Dark	Dry	Fatal	Pedestrian Collisions	Pedestrian	30 to 34	Fatal	39	North	 	 	 	 	Pedestrian hit at mid-block	Running onto Roadway	Had Been Drinking	 	 	 	Yes	 	Yes	 	 		 	 	 	 	 	 	 	14
2010	2010-01-22T05:00:00.000Z	1132	11	DANFORTH AVE	BROADVIEW AVE	 	Major Arterial	Toronto and East York	43.676145	-79.35889	Intersection	At Intersection	Traffic Signal	Clear	Daylight	Dry	Fatal	Pedestrian Collisions	Pedestrian	55 to 59	Fatal	6	East	Other	 	 	 	Vehicle turns right while ped crosses with ROW at inter.	Crossing with right of way	Normal	 	 	 	Yes	 	 	 	Yes		 	 	 	Yes	 	 	 	"54,55"
2013	2013-08-13T04:00:00.000Z	1133	11	STEELES AVE E	MIDDLEFIELD RD	 	Major Arterial	Scarborough	43.832644	-79.267993	Intersection	At Intersection	Traffic Signal	Clear	Daylight	Dry	Fatal	Pedestrian Collisions	Passenger	50 to 54	Fatal	30	 	 	 	 	 	 	 	 	 	 	 	Yes	 	 	 	Yes		 	Yes	Yes	Yes	 	 	 	42
2011	2011-11-07T05:00:00.000Z	1134	11	DUNDAS ST W	STERLING RD	 	Minor Arterial	Toronto and East York	43.650645	-79.44299	Intersection	At Intersection	Stop Sign	Clear	Daylight	Dry	Fatal	Cyclist Collisions	Cyclist	35 to 39	Fatal	30	South	Bicycle	Turning Right	 	 	 	 	 	"Motorist turns right at non-signal Inter.(stop, yield, no cont.,and dwy) and strikes cyclist."	Improper Turn	Unknown	 	Yes	 	 	Yes		 	 	 	 	 	 	 	11
2017	2017-06-03T04:00:00.000Z	1134	11	RIDGEMOOR AVE	KINGSTON RD	 	Major Arterial	Scarborough	43.706267	-79.251254	Intersection	At Intersection	Traffic Signal	Clear	Daylight	Dry	Fatal	Pedestrian Collisions	Pedestrian	70 to 74	Fatal	26	Unknown	 	 	 	 	Vehicle turns left while ped crosses with ROW at inter.	Crossing with right of way	Normal	 	 	 	Yes	 	Yes	 	 		 	 	 	Yes	 	 	 	41
2011	2011-06-29T04:00:00.000Z	1135	11	STEELES AVE W	BATHURST ST	 	Major Arterial	North York	43.792345	-79.44589	Intersection	 	No Control	Clear	Daylight	Dry	Fatal	Pedestrian Collisions	Pedestrian	85 to 89	Fatal	11	East	Other	 	 	 	Pedestrian hit on sidewalk or shoulder	On Sidewalk or Shoulder	Normal	 	 	 	Yes	 	Yes	 	 		 	 	 	 	 	 	Yes	32
2017	2017-05-16T04:00:00.000Z	1135	11	95 ELLESMERE RD	 	 	Major Arterial	Scarborough	43.758727	-79.311122	Mid-Block	Non Intersection	No Control	Clear	Daylight	Dry	Fatal	SMV Other	Driver	80 to 84	Fatal	23	East	"Automobile, Station Wagon"	Going Ahead	Lost control	Medical or Physical Disability	 	 	 	 	 	 	 	 	Yes	 	 		 	 	 	 	 	 	Yes	41
2010	2010-05-13T04:00:00.000Z	1136	11	DUNDAS ST W	COLLEGE ST	 	Minor Arterial	Toronto and East York	43.650445	-79.44189	Mid-Block	 	No Control	Clear	Daylight	Dry	Fatal	Pedestrian Collisions	Pedestrian	65 to 69	Fatal	18	North	Other	 	 	 	Pedestrian hit at mid-block	"Crossing, no Traffic Control"	Normal	 	 	 	Yes	 	Yes	 	 		 	 	 	 	 	 	 	11
2015	2015-08-04T04:00:00.000Z	1136	11	KEELE STREET	MAPLE LEAF DRIVE	40 m North of	Major Arterial	Etobicoke York	43.715346	-79.479564	Mid-Block	Non Intersection	No Control	Clear	Daylight	Dry	Fatal	Sideswipe	Driver	85 to 89	Fatal	37	North	"Automobile, Station Wagon"	Going Ahead	Lost control	Normal	 	 	 	 	 	 	 	 	Yes	 	Yes		 	Yes	 	 	 	 	 	12
2009	2009-07-18T04:00:00.000Z	1137	11	WOODBINE AVE	MORTIMER AVE	 	Major Arterial	Toronto and East York	43.692745	-79.31589	Intersection	At Intersection	Traffic Signal	Clear	Daylight	Dry	Fatal	Pedestrian Collisions	Pedestrian	85 to 89	Fatal	20	West	Other	 	 	 	Vehicle is going straight thru inter.while ped cross without ROW	Crossing without right of way	Inattentive	 	 	 	Yes	 	Yes	 	 		 	Yes	 	 	 	 	 	54
2017	2017-12-20T05:00:00.000Z	1139	11	COLLEGE ST	OSSINGTON AVE	 	Major Arterial	Toronto and East York	43.654326	-79.422664	Intersection	At Intersection	Traffic Signal	Other	Daylight	Other	Fatal	Cyclist Collisions	Cyclist	45 to 49	Fatal	60	West	Bicycle	Other	 	 	 	 	 	Insufficient information (to determine cyclist crash type).	Driving Properly	Other	 	Yes	 	 	Yes		 	 	 	 	 	 	 	14
2013	2013-11-07T05:00:00.000Z	1141	11	HARBORD ST	SPADINA AVE	 	Major Arterial	Toronto and East York	43.663043	-79.402095	Intersection	 	Traffic Signal	Clear	Daylight	Dry	Fatal	Pedestrian Collisions	Pedestrian	60 to 64	Fatal	51	South	 	 	 	 	Vehicle is going straight thru inter.while ped cross with ROW	Crossing with right of way	Unknown	 	 	 	Yes	 	 	 	 		 	 	 	Yes	 	 	 	"14,52"
2018	2018-01-05T05:00:00.000Z	1145	11	SHEPPARD ST	ADELAIDE ST W	 	Major Arterial	Toronto and East York	43.649542	-79.382091	Intersection	At Intersection	Traffic Signal	Other	Daylight	Other	Fatal	Pedestrian Collisions	Pedestrian	85 to 89	Fatal	6	North	 	 	 	 	Vehicle turns left while ped crosses with ROW at inter.	Crossing with right of way	Unknown	 	 	 	Yes	 	Yes	 	 		 	 	 	Yes	 	 	 	52
2017	2017-11-24T05:00:00.000Z	1148	11	SHEPPARD AVE E	VICTORIA PARK AVE	 	Major Arterial	Scarborough	43.775355	-79.322238	Mid-Block	Non Intersection	No Control	Clear	Daylight	Dry	Fatal	Pedestrian Collisions	Pedestrian	70 to 74	Fatal	54	South	Passenger Van	 	 	 	Pedestrian hit at mid-block	"Crossing, no Traffic Control"	Unknown	 	 	 	Yes	 	Yes	 	Yes		 	 	 	 	 	 	 	42
2010	2010-07-29T04:00:00.000Z	1149	11	YONGE ST	YORK MILLS RD	 	Major Arterial	North York	43.744145	-79.40669	Intersection	 	Traffic Signal	Clear	Daylight	Dry	Fatal	Angle	Driver	85 to 89	Fatal	28	South	"Automobile, Station Wagon"	Going Ahead	Disobeyed Traffic Control	Normal	 	 	 	 	 	 	 	 	Yes	 	 		 	 	 	Yes	Yes	 	 	32
2018	2018-01-24T05:00:00.000Z	1150	11	WARDEN AVE	BAMBURGH CRCL	195 m South	Major Arterial	Scarborough	43.81428	-79.324542	Mid-Block	Non Intersection	Traffic Signal	Clear	Daylight	Dry	Fatal	Pedestrian Collisions	Pedestrian	60 to 64	Fatal	8	West	 	 	 	 	Vehicle is going straight thru inter.while ped cross with ROW	Crossing with right of way	Normal	 	 	 	Yes	 	Yes	 	 		 	 	 	Yes	Yes	 	 	42
2011	2011-03-28T04:00:00.000Z	1152	11	NORTH QUEEN ST	ATOMIC AVE	 	Minor Arterial	Etobicoke York	43.621845	-79.54319	Mid-Block	 	No Control	Clear	Daylight	Dry	Fatal	Approaching	Driver	70 to 74	Fatal	7	West	"Automobile, Station Wagon"	Going Ahead	Lost control	Unknown	 	 	 	 	 	 	 	 	Yes	 	Yes		 	 	 	 	 	 	 	22
2016	2016-10-11T04:00:00.000Z	1152	11	8 SILVERDALE CRES	 	 	Collector	North York	43.756446	-79.341022	Mid-Block	At/Near Private Drive	No Control	Clear	Daylight	Dry	Fatal	Pedestrian Collisions	Pedestrian	80 to 84	Fatal	62	South	 	 	 	 	Pedestrian hit on sidewalk or shoulder	On Sidewalk or Shoulder	Normal	 	 	 	Yes	 	Yes	 	 		 	 	 	 	 	 	 	33
2011	2011-08-07T04:00:00.000Z	1154	11	DIXON RD	GOLFWOOD HTS Heig	 	Major Arterial	Etobicoke York	43.698545	-79.53989	Intersection	At Intersection	Traffic Signal	Clear	Daylight	Dry	Fatal	Turning Movement	Motorcycle Driver	30 to 34	Fatal	17	West	Motorcycle	Going Ahead	Exceeding Speed Limit	Normal	 	 	 	 	 	 	 	 	Yes	Yes	 		 	 	Yes	Yes	 	 	 	23
2016	2016-11-06T04:00:00.000Z	1155	11	BLOOR ST W	GRENVIEW BLVD N	 	Major Arterial	Etobicoke York	43.648158	-79.507747	Intersection	At Intersection	Stop Sign	Clear	Daylight	Dry	Fatal	Pedestrian Collisions	Pedestrian	Over 95	Fatal	70	East	 	 	 	 	Vehicle turns right while ped crosses with ROW at inter.	Crossing with right of way	Other	 	 	 	Yes	 	Yes	 	 		 	 	 	Yes	 	 	 	22
2014	2014-07-28T04:00:00.000Z	1200	12	DUDLEY AVE	FINCH AVE E	 	Major Arterial	North York	43.781047	-79.409702	Intersection	 	Stop Sign	Clear	Daylight	Dry	Fatal	Turning Movement	Driver	90 to 94	Fatal	17	North	"Automobile, Station Wagon"	Turning Left	Disobeyed Traffic Control	Unknown	 	 	 	 	 	 	 	 	Yes	 	 		 	Yes	 	Yes	 	 	 	32
2009	2009-09-01T04:00:00.000Z	1203	12	SPADINA AVE	NASSAU ST	 	Major Arterial	Toronto and East York	43.655845	-79.39919	Intersection	 	Traffic Signal	Clear	Daylight	Dry	Fatal	Cyclist Collisions	Cyclist	65 to 69	Fatal	25	South	Bicycle	Turning Left	 	 	 	 	 	Cyclist turned left across motorists path.	Disobeyed Traffic Control	Normal	 	Yes	 	 	 		 	 	 	 	 	 	 	"14,52"
2012	2012-04-19T04:00:00.000Z	1203	12	MORNINGSIDE AVE	MILNER AVE	 	Major Arterial	Scarborough	43.800745	-79.19929	Mid-Block	 	No Control	Clear	Daylight	Dry	Fatal	SMV Other	Driver	50 to 54	Fatal	10	North	"Automobile, Station Wagon"	Going Ahead	Other	Unknown	 	 	 	 	 	 	 	 	Yes	 	 		 	 	 	 	 	 	 	42
2018	2018-06-12T04:00:00.000Z	1204	12	ST GEORGE ST	BLOOR ST W	 	Major Arterial	Toronto and East York	43.667445	-79.399799	Intersection	At Intersection	Traffic Signal	Clear	Daylight	Dry	Fatal	Cyclist Collisions	Cyclist	55 to 59	Fatal	32	South	Bicycle	Going Ahead	 	 	 	 	 	Motorist turning right on green or amber at signalized intersection strikes cyclist.	Other	Unknown	 	Yes	 	 	Yes		 	 	 	 	 	 	 	"53,52"
2015	2015-08-16T04:00:00.000Z	1210	12	2350 BAYVIEW AVE	 	 	Major Arterial	North York	43.732985	-79.38129	Intersection	Intersection Related	Traffic Signal	Clear	Daylight	Dry	Fatal	Turning Movement	Driver	85 to 89	Fatal	40	South	"Automobile, Station Wagon"	Going Ahead	Disobeyed Traffic Control	Inattentive	 	 	 	 	 	 	 	 	Yes	 	 		 	 	 	Yes	Yes	 	 	"33,32"
2017	2017-11-28T05:00:00.000Z	1212	12	EDITH DR	ORCHARD VIEW BLVD	 	Collector	North York	43.707171	-79.40327	Intersection	At Intersection	Stop Sign	Clear	Daylight	Dry	Fatal	Pedestrian Collisions	Pedestrian	80 to 84	Fatal	56	East	 	 	 	 	Vehicle turns left while ped crosses with ROW at inter.	Crossing with right of way	Unknown	 	 	 	Yes	 	Yes	 	 		 	 	 	Yes	 	 	 	53
2011	2011-07-16T04:00:00.000Z	1215	12	LAWRENCE AVE W	ROYAL YORK RD	 	Minor Arterial	Etobicoke York	43.696145	-79.53269	Intersection	At Intersection	Traffic Signal	Clear	Daylight	Dry	Fatal	SMV Other	Passenger	70 to 74	Fatal	14	 	Other	 	 	 	 	 	 	 	 	 	 	 	Yes	 	 		 	Yes	 	 	 	 	 	23
2018	2018-10-18T04:00:00.000Z	1217	12	OSSINGTON AVE	NORTHUMBERLAND ST	 	Minor Arterial	Toronto and East York	43.663294	-79.426227	Mid-Block	Non Intersection	No Control	Clear	Daylight	Dry	Fatal	Pedestrian Collisions	Pedestrian	Over 95	Fatal	56	East	Other	 	 	 	Pedestrian hit at mid-block	Coming From Behind Parked Vehicle	Inattentive	 	 	 	Yes	 	Yes	 	 		 	 	 	Yes	 	 	 	14
2018	2018-03-29T04:00:00.000Z	1221	12	WILSON AVE	JULIAN RD	 	Major Arterial	North York	43.724532	-79.491092	Intersection	Intersection Related	Traffic Signal	Rain	Daylight	Wet	Fatal	Pedestrian Collisions	Pedestrian	75 to 79	Fatal	18	North	 	 	 	 	Vehicle is going straight thru inter.while ped cross without ROW	"Crossing, no Traffic Control"	Inattentive	 	 	 	Yes	 	Yes	 	 		 	Yes	 	 	 	 	 	31
2012	2012-07-28T04:00:00.000Z	1224	12	HIGHWAY 27  N	HARNESS RD	 	Major Arterial	Etobicoke York	43.720045	-79.59679	Intersection	 	No Control	Clear	Daylight	Dry	Fatal	Pedestrian Collisions	Pedestrian	60 to 64	Fatal	22	West	Other	 	 	 	Pedestrian hit at mid-block	"Crossing, no Traffic Control"	Unknown	 	 	 	Yes	 	Yes	 	 		 	 	 	 	 	 	 	23
2016	2016-08-05T04:00:00.000Z	1225	12	FINCH AVE W	TALBOT RD	40 m East	Major Arterial	North York	43.778243	-79.422359	Mid-Block	Non Intersection	No Control	Clear	Daylight	Dry	Fatal	Pedestrian Collisions	Pedestrian	80 to 84	Fatal	50	North	 	 	 	 	Pedestrian hit at mid-block	"Crossing, no Traffic Control"	Inattentive	 	 	 	Yes	 	Yes	 	 		 	 	 	 	 	 	 	32
2013	2013-05-16T04:00:00.000Z	1231	12	MILL ST	YONGE ST	 	Major Arterial	North York	43.740344	-79.405887	Intersection	At Intersection	Traffic Signal	Clear	Daylight	Dry	Fatal	Pedestrian Collisions	Pedestrian	90 to 94	Fatal	15	South	 	 	 	 	Vehicle turns right while ped crosses with ROW at inter.	Crossing with right of way	Normal	 	 	 	Yes	 	Yes	 	 		 	 	 	Yes	Yes	 	 	32
2015	2015-06-02T04:00:00.000Z	1233	12	LAWRENCE AVE E	MCCOWAN RD	 	Major Arterial	Scarborough	43.755538	-79.245418	Intersection	At Intersection	Traffic Signal	Clear	Daylight	Dry	Fatal	Pedestrian Collisions	Pedestrian	70 to 74	Fatal	27	North	 	 	 	 	Vehicle is going straight thru inter.while ped cross without ROW	Crossing without right of way	Unknown	 	 	 	Yes	 	Yes	 	 		 	 	 	 	 	 	 	43
2009	2009-05-01T04:00:00.000Z	1236	12	ST CLAIR AVE W	ORIOLE RD	 	Major Arterial	Toronto and East York	43.686945	-79.39979	Intersection	 	No Control	Clear	Daylight	Dry	Fatal	SMV Unattended Vehicle	Passenger	90 to 94	Fatal	14	 	Other	 	 	 	 	 	 	 	 	 	 	 	Yes	 	 		 	Yes	 	 	 	 	 	53
2011	2011-08-02T04:00:00.000Z	1236	12	LAKE SHORE BLVD W	EIGHTH ST	 	Major Arterial	Etobicoke York	43.600445	-79.50639	Intersection	At Intersection	No Control	Clear	Daylight	Dry	Fatal	Pedestrian Collisions	Pedestrian	85 to 89	Fatal	18	East	Other	 	 	 	Vehicle turns left while ped crosses with ROW at inter.	Crossing with right of way	Unknown	 	 	 	Yes	 	Yes	 	 		 	 	 	Yes	 	 	 	22
2017	2017-12-15T05:00:00.000Z	1237	12	CHURCH ST	WELLINGTON ST E	 	Minor Arterial	Toronto and East York	43.648543	-79.373821	Intersection	At Intersection	Traffic Signal	Other	Daylight	Other	Fatal	Pedestrian Collisions	Pedestrian	20 to 24	Fatal	57	South	 	 	 	 	Vehicle turns right while ped crosses with ROW at inter.	Crossing with right of way	Unknown	 	 	 	Yes	 	 	 	Yes		 	 	 	Yes	 	 	 	51
2012	2012-05-11T04:00:00.000Z	1239	12	DUPLEX AVE	ANDERSON AVE	 	Collector	Toronto and East York	43.704245	-79.40049	Intersection	At Intersection	Stop Sign	Clear	Daylight	Dry	Fatal	Pedestrian Collisions	Pedestrian	80 to 84	Fatal	14	West	Other	 	 	 	Vehicle turns left while ped crosses with ROW at inter.	Crossing with right of way	Normal	 	 	 	Yes	 	Yes	 	 		 	 	 	 	 	 	 	53
2010	2010-01-12T05:00:00.000Z	1240	12	MARTIN GROVE RD	EGLINTON AVE W	 	Major Arterial	Etobicoke York	43.674445	-79.56319	Intersection	At Intersection	Traffic Signal	Clear	Daylight	Dry	Fatal	Pedestrian Collisions	Pedestrian	30 to 34	Fatal	2	East	Other	 	 	 	Vehicle is going straight thru inter.while ped cross with ROW	Crossing with right of way	Normal	 	 	 	Yes	 	Yes	 	 		 	Yes	 	Yes	Yes	 	 	"23,22"
2012	2012-05-27T04:00:00.000Z	1240	12	22 DELHI AVE	 	 	Local	North York	43.742343	-79.418292	Intersection	 	No Control	Clear	Daylight	Dry	Fatal	Pedestrian Collisions	Pedestrian	80 to 84	Fatal	16	West	Other	 	 	 	Vehicle is reversing and hits pedestrian	Walking on Roadway Against Traffic	Medical or Physical Disability	 	 	 	Yes	 	Yes	 	 		 	 	 	 	 	 	 	32
2015	2015-03-28T04:00:00.000Z	1240	12	REINER RD	WILSON HEIGHTS BLVD	 	Minor Arterial	North York	43.74869	-79.454883	Intersection	At Intersection	Traffic Signal	Clear	Daylight	Dry	Fatal	Pedestrian Collisions	Pedestrian	75 to 79	Fatal	13	West	 	 	 	 	Vehicle turns left while ped crosses with ROW at inter.	Crossing with right of way	Other	 	 	 	Yes	 	Yes	 	 		 	 	 	Yes	 	 	 	32
2016	2016-09-16T04:00:00.000Z	1242	12	110 ST REGIS CRES	 	 	Local	North York	43.754729	-79.482974	Mid-Block	At/Near Private Drive	No Control	Clear	Daylight	Dry	Fatal	Pedestrian Collisions	Pedestrian	80 to 84	Fatal	57	Unknown	 	 	 	 	Vehicle is reversing and hits pedestrian	On Sidewalk or Shoulder	Unknown	 	 	 	Yes	 	Yes	 	 		 	 	 	Yes	 	 	 	31
2014	2014-11-20T05:00:00.000Z	1245	12	2440 DUNDAS ST W	 	 	Minor Arterial	Scarborough	43.658259	-79.452983	Intersection	At Intersection	Traffic Signal	Clear	Daylight	Dry	Fatal	Pedestrian Collisions	Pedestrian	65 to 69	Fatal	42	East	 	 	 	 	Vehicle turns left while ped crosses with ROW at inter.	Crossing with right of way	Unknown	 	 	 	Yes	 	Yes	 	 		 	 	 	Yes	 	 	 	11
2014	2014-11-07T05:00:00.000Z	1247	12	DON MILLS RD	FRESHMEADOW DR	 	Major Arterial	North York	43.809378	-79.359485	Mid-Block	Non Intersection	No Control	Clear	Daylight	Dry	Fatal	Pedestrian Collisions	Pedestrian	70 to 74	Fatal	39	East	 	 	 	 	Pedestrian hit at mid-block	"Crossing, no Traffic Control"	Unknown	 	 	 	Yes	 	Yes	 	 		 	 	 	 	 	 	 	33
2016	2016-07-05T04:00:00.000Z	1247	12	740 DUPONT ST	 	 	Major Arterial	Toronto and East York	43.671199	-79.423724	Mid-Block	Non Intersection	No Control	Clear	Daylight	Dry	Fatal	Cyclist Collisions	Cyclist	70 to 74	Fatal	41	West	Bicycle	Overtaking	 	 	 	 	 	Cyclist strikes a parked vehicle.	Improper Passing	Unknown	 	Yes	 	 	 		 	 	 	 	 	 	 	14
2017	2017-03-04T05:00:00.000Z	1249	12	REXDALE BLVD	RAMP TO ENTRANCE RD	6.5 m West of	Major Arterial	Etobicoke York	43.720431	-79.61201	Mid-Block	Non Intersection	No Control	Clear	Daylight	Dry	Fatal	Pedestrian Collisions	Pedestrian	90 to 94	Fatal	14	South	 	 	 	 	Pedestrian hit at mid-block	"Crossing, no Traffic Control"	Inattentive	 	 	 	Yes	 	Yes	 	 		 	 	 	 	 	 	 	23
2014	2014-06-03T04:00:00.000Z	1250	12	53 CRAIGMORE CRES	 	 	Local	North York	43.763236	-79.397456	Mid-Block	 	No Control	Clear	Daylight	Dry	Fatal	Pedestrian Collisions	Pedestrian	85 to 89	Fatal	11	West	 	 	 	 	Vehicle is reversing and hits pedestrian	Other	Normal	 	 	 	Yes	 	Yes	 	 		 	 	 	 	 	 	 	32
2017	2017-12-03T05:00:00.000Z	1253	12	PRICE ST	YONGE ST	75 m East	Local	Toronto and East York	43.679961	-79.389858	Mid-Block	Non Intersection	No Control	Clear	Daylight	Dry	Fatal	Pedestrian Collisions	Pedestrian	75 to 79	Fatal	63	South	 	 	 	 	Vehicle is reversing and hits pedestrian	Other	Normal	 	 	 	Yes	 	Yes	 	 		 	 	 	 	 	 	 	53
2014	2014-11-06T05:00:00.000Z	1254	12	MIDLAND AVE	GILDER DR	 	Major Arterial	Scarborough	43.736033	-79.258769	Intersection	At Intersection	Traffic Signal	Clear	Daylight	Dry	Fatal	Pedestrian Collisions	Pedestrian	40 to 44	Fatal	38	Unknown	 	 	 	 	Pedestrian hit on sidewalk or shoulder	On Sidewalk or Shoulder	Normal	 	 	 	Yes	 	Yes	 	 		 	 	 	 	 	 	 	41
2009	2009-10-21T04:00:00.000Z	1255	12	WESTON RD	FENMAR DR	 	Major Arterial	Etobicoke York	43.756345	-79.54349	Mid-Block	At Intersection	No Control	Rain	Daylight	Wet	Fatal	Pedestrian Collisions	Pedestrian	50 to 54	Fatal	35	Unknown	Other	 	 	 	Other / Undefined	Pushing/Working on Vehicle	Unknown	 	 	 	Yes	 	 	 	Yes		 	 	 	 	 	 	 	31
2018	2018-06-23T04:00:00.000Z	1259	12	EGLINTON AVE W	CASTLE KNOCK RD	 	Major Arterial	Toronto and East York	43.703868	-79.411601	Intersection	At Intersection	Traffic Signal	Clear	Daylight	Dry	Fatal	Pedestrian Collisions	Pedestrian	70 to 74	Fatal	34	Unknown	 	 	 	 	Other / Undefined	Other	Had Been Drinking	 	 	 	Yes	 	Yes	 	 		 	 	 	 	 	 	 	53
2009	2009-10-16T04:00:00.000Z	1301	13	STEELES AVE W	TANGREEN CRT	 	Major Arterial	North York	43.796645	-79.42629	Intersection	 	No Control	Clear	Daylight	Dry	Fatal	Pedestrian Collisions	Pedestrian	80 to 84	Fatal	41	South	Other	 	 	 	Vehicle is going straight thru inter.while ped cross without ROW	"Crossing, no Traffic Control"	Inattentive	 	 	 	Yes	 	Yes	 	 		 	 	 	 	 	 	 	32
2017	2017-06-30T04:00:00.000Z	1304	13	847 JANE ST	 	 	Collector	Etobicoke York	43.676146	-79.494518	Mid-Block	Non Intersection	No Control	Clear	Daylight	Dry	Fatal	Cyclist Collisions	Cyclist	70 to 74	Fatal	28	West	Bicycle	Going Ahead	 	 	 	 	 	"Motorist turns right at non-signal Inter.(stop, yield, no cont.,and dwy) and strikes cyclist."	Driving Properly	Normal	 	Yes	Yes	 	 		 	 	 	 	 	 	 	12
2011	2011-06-11T04:00:00.000Z	1308	13	DEWLANE DR	BATHURST ST	 	Major Arterial	North York	43.785945	-79.44589	Intersection	 	No Control	Clear	Daylight	Dry	Fatal	Pedestrian Collisions	Pedestrian	80 to 84	Fatal	9	West	Other	 	 	 	Pedestrian hit at private driveway	Other	Normal	 	 	 	Yes	 	Yes	 	 		 	 	 	 	 	 	 	32
2008	2008-05-22T04:00:00.000Z	1310	13	EGLINTON AVE W	ELMSTHORPE AVE	 	Major Arterial	Toronto and East York	43.704245	-79.41029	Mid-Block	 	No Control	Clear	Daylight	Dry	Fatal	Cyclist Collisions	Cyclist	55 to 59	Fatal	20	East	Bicycle	Going Ahead	 	 	 	 	 	Cyclist struck opened vehicle door	Driving Properly	Unknown	 	Yes	Yes	 	 		 	 	 	 	 	 	 	53
2014	2014-01-26T05:00:00.000Z	1310	13	SHEPPARD AVE E	CONSUMERS RD	 	Major Arterial	North York	43.775088	-79.331226	Intersection	 	Traffic Signal	Snow	Daylight	Loose Snow	Fatal	Rear End	Driver	70 to 74	Fatal	2	East	Passenger Van	Going Ahead	Other	Unknown	 	 	 	 	 	 	 	 	Yes	 	 		 	Yes	 	 	 	 	 	33
2008	2008-10-18T04:00:00.000Z	1315	13	BAYVIEW BLOOR S RAMP N	BLOOR RAMP	 	Major Arterial	Toronto and East York	43.678245	-79.36889	Mid-Block	 	No Control	Clear	Daylight	Dry	Fatal	Approaching	Motorcycle Driver	30 to 34	Fatal	45	East	Motorcycle	Going Ahead	Lost control	Unknown	 	 	 	 	 	 	 	 	Yes	Yes	 		 	Yes	 	 	 	 	 	53
2016	2016-02-18T05:00:00.000Z	1315	13	DAWES RD	SECORD AVE	 	Minor Arterial	Toronto and East York	43.69353	-79.297221	Intersection	At Intersection	Traffic Signal	Clear	Daylight	Dry	Fatal	Pedestrian Collisions	Pedestrian	70 to 74	Fatal	13	North	 	 	 	 	Vehicle turns right while ped crosses with ROW at inter.	Crossing with right of way	Normal	 	 	 	Yes	 	Yes	 	 		 	 	 	Yes	 	 	 	54
2011	2011-09-12T04:00:00.000Z	1316	13	STEELES AVE W	STEINWAY BLVD	 	Major Arterial	Etobicoke York	43.753945	-79.62099	Mid-Block	 	No Control	Clear	Daylight	Dry	Fatal	Turning Movement	Driver	20 to 24	Fatal	24	East	"Automobile, Station Wagon"	Going Ahead	Exceeding Speed Limit	Unknown	 	 	 	 	 	 	 	 	Yes	 	 		 	 	Yes	Yes	 	 	 	23
2010	2010-01-12T05:00:00.000Z	1317	13	DUNDAS ST W	RONCESVALLES AVE	 	Minor Arterial	Toronto and East York	43.653845	-79.45179	Intersection	At Intersection	Traffic Signal	Clear	Daylight	Dry	Fatal	Pedestrian Collisions	Pedestrian	80 to 84	Fatal	3	East	Other	 	 	 	Vehicle is going straight thru inter.while ped cross without ROW	Crossing without right of way	Inattentive	 	 	 	Yes	 	Yes	 	 		 	 	 	 	 	 	 	11
2013	2013-07-03T04:00:00.000Z	1319	13	LAKE SHORE BLVD W	BAY ST	 	Expressway	Toronto and East York	43.642996	-79.377811	Intersection	 	Traffic Signal	Clear	Daylight	Dry	Fatal	Pedestrian Collisions	Pedestrian	70 to 74	Fatal	19	North	 	 	 	 	Pedestrian hit on sidewalk or shoulder	On Sidewalk or Shoulder	Unknown	 	 	 	Yes	 	Yes	 	 		 	Yes	 	Yes	 	 	 	52
2014	2014-12-12T05:00:00.000Z	1320	13	SHEPPARD AVE E	404 N SHEPPARD W RAMP	 	Expressway	North York	43.77582	-79.337749	Intersection	 	Traffic Signal	Clear	Daylight	Wet	Fatal	Turning Movement	Passenger	50 to 54	Fatal	47	 	 	 	 	 	 	 	 	 	 	 	 	 	Yes	 	 		 	Yes	 	Yes	Yes	 	 	33
2015	2015-06-11T04:00:00.000Z	1322	13	YONGE ST	EMPRESS AVE	 	Major Arterial	North York	43.769263	-79.412891	Intersection	At Intersection	Traffic Signal	Clear	Daylight	Dry	Fatal	Pedestrian Collisions	Pedestrian	65 to 69	Fatal	29	 	 	 	 	 	Pedestrian hit on sidewalk or shoulder	On Sidewalk or Shoulder	Normal	 	 	 	Yes	 	Yes	 	 		 	 	 	 	 	 	 	32
2015	2015-08-24T04:00:00.000Z	1325	13	STEELES AVE W	TORRESDALE AVE	1 m East of	Major Arterial	North York	43.790801	-79.453021	Intersection	At Intersection	Traffic Signal	Clear	Daylight	Dry	Fatal	Pedestrian Collisions	Pedestrian	85 to 89	Fatal	39	Unknown	 	 	 	 	Vehicle is going straight thru inter.while ped cross without ROW	Crossing without right of way	Medical or Physical Disability	 	 	 	Yes	 	Yes	 	 		 	 	 	 	 	 	 	32
2015	2015-07-26T04:00:00.000Z	1328	13	6486 KINGSTON RD	 	15 m West of	Minor Arterial	Scarborough	43.792666	-79.155994	Mid-Block	Non Intersection	No Control	Clear	Daylight	Dry	Fatal	Turning Movement	Motorcycle Driver	30 to 34	Fatal	35	East	Motorcycle	Going Ahead	Exceeding Speed Limit	Normal	 	 	 	 	 	 	 	 	Yes	Yes	 		 	Yes	Yes	Yes	 	 	 	43
2009	2009-04-20T04:00:00.000Z	1330	13	RONCESVALLES AVE	HIGH PARK BLVD	 	Minor Arterial	Toronto and East York	43.646327	-79.449046	Intersection	 	Traffic Signal	Rain	Daylight	Wet	Fatal	Pedestrian Collisions	Pedestrian	85 to 89	Fatal	13	West	Other	 	 	 	Vehicle turns left while ped crosses with ROW at inter.	Crossing with right of way	Normal	 	 	 	Yes	 	 	 	 		 	 	 	Yes	 	 	 	11
2016	2016-12-01T05:00:00.000Z	1335	13	COSBURN AVE	CEDARVALE AVE	 	Collector	Toronto and East York	43.696753	-79.315616	Intersection	At Intersection	Pedestrian Crossover	Clear	Daylight	Dry	Fatal	Pedestrian Collisions	Pedestrian	65 to 69	Fatal	75	North	 	 	 	 	Pedestrian hit a PXO/ped. Mid-block signal	"Crossing, Pedestrian Crossover"	Normal	 	 	 	Yes	 	Yes	 	 		 	 	 	Yes	 	 	 	54
2008	2008-07-14T04:00:00.000Z	1337	13	DANFORTH AVE	COXWELL AVE	 	Major Arterial	Toronto and East York	43.683345	-79.32359	Intersection	At Intersection	Traffic Signal	Clear	Daylight	Dry	Fatal	Pedestrian Collisions	Pedestrian	50 to 54	Fatal	33	North	Other	 	 	 	Vehicle is going straight thru inter.while ped cross with ROW	Crossing with right of way	Normal	 	 	 	Yes	 	Yes	 	 		 	Yes	Yes	Yes	 	 	Yes	"54,55"
2008	2008-07-04T04:00:00.000Z	1345	13	EGLINTON AVE E	BARBADOS BLVD	 	Major Arterial	Scarborough	43.737945	-79.24239	Mid-Block	 	No Control	Clear	Daylight	Dry	Fatal	Approaching	Driver	80 to 84	Fatal	29	East	"Automobile, Station Wagon"	Going Ahead	Lost control	Unknown	 	 	 	 	 	 	 	 	Yes	 	 		 	 	Yes	Yes	 	 	 	43
2012	2012-01-12T05:00:00.000Z	558	5	NEILSON RD	FINCH AVE E	 	Minor Arterial	Scarborough	43.816245	-79.22759	Intersection	 	Traffic Signal	Rain	"Dark, artificial"	Wet	Fatal	Pedestrian Collisions	Pedestrian	40 to 44	Fatal	2	West	Other	 	 	 	Vehicle turns left while ped crosses with ROW at inter.	Crossing with right of way	Unknown	 	 	 	Yes	 	Yes	 	 		 	Yes	 	Yes	 	 	 	42
2013	2013-11-29T05:00:00.000Z	558	5	1491 LAKE SHORE BLVD W	 	 	Major Arterial	Toronto and East York	43.637614	-79.447742	Mid-Block	 	No Control	Clear	"Dawn, artificial"	Dry	Fatal	SMV Other	Driver	25 to 29	Fatal	58	East	"Automobile, Station Wagon"	Going Ahead	Lost control	Unknown	 	 	 	 	 	 	 	 	Yes	 	 		 	 	Yes	Yes	 	 	 	11
2018	2018-06-14T04:00:00.000Z	558	5	ST CLAIR AVE E	DANFORTH RD	 	Major Arterial	Scarborough	43.716773	-79.259883	Intersection	At Intersection	Traffic Signal	Clear	Daylight	Dry	Fatal	Turning Movement	Motorcycle Driver	55 to 59	Fatal	33	West	Motorcycle	Going Ahead	Driving Properly	Unknown	 	 	 	 	 	 	 	 	Yes	Yes	 		 	 	 	Yes	 	 	 	41
2010	2010-04-13T04:00:00.000Z	559	5	STEELES AVE E	BIRCHMOUNT RD	 	Major Arterial	Scarborough	43.821345	-79.31689	Intersection	At Intersection	Traffic Signal	Clear	Dawn	Dry	Fatal	Angle	Passenger	70 to 74	Fatal	16	 	Other	 	 	 	 	 	 	 	 	 	 	 	Yes	 	 		 	Yes	 	Yes	Yes	 	Yes	42
2014	2014-11-09T05:00:00.000Z	559	5	KIPLING AVE	WESTHUMBER BLVD	 	Major Arterial	Etobicoke York	43.728129	-79.574641	Intersection	At Intersection	Traffic Signal	Clear	"Dark, artificial"	Dry	Fatal	Angle	Passenger	20 to 24	Fatal	40	 	 	 	 	 	 	 	 	 	 	 	 	 	Yes	 	 		 	Yes	 	Yes	Yes	 	 	23
2014	2014-11-21T05:00:00.000Z	600	6	FINCH AVE W	DRIFTWOOD AVE	 	Major Arterial	Etobicoke York	43.758048	-79.513431	Intersection	At Intersection	Traffic Signal	Clear	"Dawn, artificial"	Dry	Fatal	Pedestrian Collisions	Pedestrian	60 to 64	Fatal	41	North	 	 	 	 	Vehicle is going straight thru inter.while ped cross without ROW	Crossing without right of way	Unknown	 	 	 	Yes	 	Yes	 	 		 	 	 	 	 	 	 	31
2015	2015-11-24T05:00:00.000Z	603	6	MCCOWAN RD	KENHATCH BLVD	 	Major Arterial	Scarborough	43.801421	-79.263774	Intersection	At Intersection	Traffic Signal	Snow	Dark	Wet	Fatal	Pedestrian Collisions	Pedestrian	25 to 29	Fatal	57	Unknown	 	 	 	 	Vehicle is going straight thru inter.while ped cross with ROW	Crossing with right of way	Normal	 	 	 	Yes	 	Yes	 	 		 	 	Yes	Yes	Yes	 	 	42
2011	2011-08-16T04:00:00.000Z	606	6	374 BROCK AVE	PUBLIC LANE	 	Laneway	Toronto and East York	43.652745	-79.43739	"Park, Private Property, Public Lane"	 	No Control	Clear	Daylight	Dry	Fatal	SMV Other	Driver	55 to 59	Fatal	20	North	"Automobile, Station Wagon"	Reversing	Other	Normal	 	 	 	 	 	 	 	 	Yes	 	 		 	 	 	 	 	 	 	11
2014	2014-05-21T04:00:00.000Z	610	6	HIGHWAY 27  S	BELFIELD RD	 	Major Arterial	Etobicoke York	43.699229	-79.587123	Intersection	 	Traffic Signal	Clear	Daylight	Dry	Fatal	Rear End	Driver	40 to 44	Fatal	10	South	"Automobile, Station Wagon"	Stopped	Driving Properly	Normal	 	 	 	 	 	 	 	 	Yes	 	 		 	 	 	 	 	 	 	23
2015	2015-09-18T04:00:00.000Z	610	6	QUEEN ST E	HILTZ AVE	5 m West of	Minor Arterial	Toronto and East York	43.664164	-79.326206	Intersection	Non Intersection	No Control	Clear	Dark	Dry	Fatal	Approaching	Motorcycle Driver	35 to 39	Fatal	43	East	Motorcycle	Going Ahead	Lost control	Inattentive	 	 	 	 	 	 	 	 	 	Yes	 		 	 	 	 	 	 	 	55
2013	2013-06-16T04:00:00.000Z	616	6	JOE SHUSTER  WAY	KING ST W	 	Local	Toronto and East York	43.640547	-79.423999	Mid-Block	 	No Control	Rain	Daylight	Wet	Fatal	SMV Other	Driver	40 to 44	Fatal	17	East	"Automobile, Station Wagon"	Going Ahead	Other	Unknown	 	 	 	 	 	 	 	 	Yes	 	 		 	 	 	 	 	 	 	14
2015	2015-01-28T05:00:00.000Z	617	6	1792 BIRCHMOUNT RD	 	 	Major Arterial	Scarborough	43.765433	-79.291316	Mid-Block	 	No Control	Clear	Dark	Dry	Fatal	Pedestrian Collisions	Pedestrian	55 to 59	Fatal	3	West	 	 	 	 	Pedestrian hit at mid-block	"Crossing, no Traffic Control"	Inattentive	 	 	 	Yes	 	Yes	 	 		 	 	 	 	 	 	 	41
2014	2014-09-10T04:00:00.000Z	620	6	OKEEFE LANE	DUNDAS SQ	 	Laneway	Toronto and East York	43.655387	-79.379863	Mid-Block	 	No Control	Clear	"Dark, artificial"	Dry	Fatal	Pedestrian Collisions	Pedestrian	25 to 29	Fatal	27	Unknown	 	 	 	 	Vehicle is reversing and hits pedestrian	Other	Had Been Drinking	 	 	 	Yes	 	 	 	Yes		 	 	 	 	 	 	 	51
2015	2015-10-06T04:00:00.000Z	621	6	MORNINGSIDE AVE	SHEPPARD AVE E	358 m North of	Major Arterial	Scarborough	43.805159	-79.20087	Mid-Block	Non Intersection	No Control	Clear	"Dawn, artificial"	Dry	Fatal	Rear End	Driver	50 to 54	Fatal	49	South	"Automobile, Station Wagon"	Going Ahead	Lost control	Unknown	 	 	 	 	 	 	 	 	Yes	 	 		 	 	 	 	 	 	 	42
2018	2018-10-01T04:00:00.000Z	622	6	THE QUEENSWAY	WINDERMERE AVE	 	Major Arterial	Toronto and East York	43.637206	-79.469287	Mid-Block	Non Intersection	No Control	Clear	Dawn	Wet	Fatal	Pedestrian Collisions	Pedestrian	50 to 54	Fatal	50	East	 	 	 	 	Pedestrian involved in a collision with transit vehicle anywhere along roadway	Walking on Roadway Against Traffic	Unknown	 	 	 	Yes	 	 	 	 		 	 	 	 	 	 	 	11
2018	2018-12-22T05:00:00.000Z	623	6	DAVENPORT  RD	HAZELTON  AVE	 	Major Arterial	Toronto and East York	43.675101	-79.394183	Mid-Block	Non Intersection	No Control	Clear	"Dawn, artificial"	Dry	Fatal	Pedestrian Collisions	Pedestrian	50 to 54	Fatal	65	Unknown	 	 	 	 	Pedestrian hit at mid-block	Other	Normal	 	 	 	Yes	 	Yes	 	 		 	 	Yes	Yes	 	 	 	53
2009	2009-11-24T05:00:00.000Z	630	6	WARDEN AVE	CATARAQUI CRES	 	Minor Arterial	Scarborough	43.702545	-79.27699	Intersection	At Intersection	No Control	Rain	Dark	Wet	Fatal	Pedestrian Collisions	Pedestrian	45 to 49	Fatal	42	East	Other	 	 	 	Pedestrian hit at mid-block	"Crossing, no Traffic Control"	Unknown	 	 	 	Yes	 	Yes	 	 		 	 	 	 	 	 	 	41
2011	2011-10-21T04:00:00.000Z	630	6	SPADINA AVE W	KING ST W	 	Major Arterial	Toronto and East York	43.645445	-79.39499	Intersection	At Intersection	Traffic Signal	Clear	Dark	Dry	Fatal	Pedestrian Collisions	Pedestrian	25 to 29	Fatal	29	East	Other	 	 	 	Other / Undefined	Walking on Roadway Against Traffic	Unknown	 	 	 	Yes	 	 	 	Yes		 	Yes	 	 	 	 	 	"14,52"
2016	2016-08-30T04:00:00.000Z	630	6	WARDEN AVE	FINCH AVE E	25M	Major Arterial	Scarborough	43.796763	-79.315753	Intersection	At Intersection	Traffic Signal	Clear	Daylight	Dry	Fatal	Rear End	Passenger	25 to 29	Fatal	54	 	 	 	 	 	 	 	 	 	 	 	 	 	Yes	 	 		 	Yes	 	 	 	 	 	42
2015	2015-09-24T04:00:00.000Z	636	6	THE QUEENSWAY	GLENDALE AVE	57 m East of	Major Arterial	Toronto and East York	43.639189	-79.450557	Mid-Block	At Intersection	No Control	Clear	"Dark, artificial"	Dry	Fatal	Pedestrian Collisions	Pedestrian	75 to 79	Fatal	51	North	 	 	 	 	Pedestrian hit at mid-block	"Crossing, no Traffic Control"	Normal	 	 	 	Yes	 	Yes	 	 		 	 	 	 	 	 	 	11
2009	2009-12-24T05:00:00.000Z	640	6	MARWILL ST	ALMORE AVE	 	Local	North York	43.746845	-79.44449	Intersection	 	No Control	Clear	Dark	Dry	Fatal	Pedestrian Collisions	Pedestrian	85 to 89	Fatal	48	South	Other	 	 	 	Pedestrian hit at mid-block	Walking on Roadway with Traffic	Normal	 	 	 	Yes	 	Yes	 	 		 	 	 	 	 	 	 	32
2012	2012-11-23T05:00:00.000Z	643	6	DAVENPORT RD	LANSDOWNE AVE	 	Minor Arterial	Toronto and East York	43.671546	-79.448291	Intersection	At Intersection	Traffic Signal	Clear	"Dark, artificial"	Dry	Fatal	Cyclist Collisions	Cyclist	35 to 39	Fatal	39	North	Bicycle	Going Ahead	 	 	 	 	 	"Cyclist without ROW rides into path of motorist at inter, lnwy, dwy-Cyclist not turn."	 	 	 	Yes	Yes	 	 		 	 	 	Yes	Yes	 	 	13
2015	2015-02-16T05:00:00.000Z	644	6	KENNEDY RD	MCNICOLL AVE	 	Major Arterial	Scarborough	43.812129	-79.301936	Intersection	At Intersection	Traffic Signal	Clear	Dawn	Dry	Fatal	Pedestrian Collisions	Pedestrian	65 to 69	Fatal	6	East	 	 	 	 	Vehicle is going straight thru inter.while ped cross with ROW	Crossing with right of way	Unknown	 	 	 	Yes	 	Yes	 	 		 	 	 	Yes	Yes	 	 	42
2015	2015-03-10T04:00:00.000Z	645	6	452 MORTIMER AVE	 	 	Minor Arterial	Toronto and East York	43.689231	-79.332736	Intersection	 	No Control	Clear	"Dawn, artificial"	Wet	Fatal	Pedestrian Collisions	Pedestrian	85 to 89	Fatal	10	South	 	 	 	 	Pedestrian hit at mid-block	"Crossing, no Traffic Control"	Unknown	 	 	 	Yes	 	Yes	 	 		 	 	 	 	 	 	 	54
2018	2018-11-09T05:00:00.000Z	650	6	ELLESMERE RD	BIRCHMOUNT RD	 	Major Arterial	Scarborough	43.763327	-79.291301	Intersection	Intersection Related	No Control	Snow	Daylight	Dry	Fatal	Pedestrian Collisions	Pedestrian	55 to 59	Fatal	58	Unknown	 	 	 	 	Pedestrian hit on sidewalk or shoulder	On Sidewalk or Shoulder	Normal	 	 	 	Yes	 	Yes	 	 		 	 	 	 	 	 	 	41
2009	2009-03-11T04:00:00.000Z	652	6	STEELES AVE W	PINE VALLEY  DR	 	Major Arterial	Etobicoke York	43.766535	-79.564769	Intersection	At Intersection	Traffic Signal	Rain	Dark	Wet	Fatal	Pedestrian Collisions	Pedestrian	55 to 59	Fatal	7	South	Other	 	 	 	Pedestrian hit at mid-block	"Crossing, no Traffic Control"	Inattentive	 	 	 	Yes	 	 	 	Yes		 	 	 	 	 	 	 	31
2012	2012-11-01T04:00:00.000Z	652	6	LAWRENCE AVE W	CORONA ST	 	Major Arterial	North York	43.714145	-79.45329	Mid-Block	 	No Control	Rain	Dark	Wet	Fatal	Pedestrian Collisions	Pedestrian	30 to 34	Fatal	37	Unknown	Other	 	 	 	Vehicle is going straight thru inter.while ped cross without ROW	"Crossing, no Traffic Control"	Inattentive	 	 	 	Yes	 	Yes	 	 		 	Yes	 	Yes	 	 	 	"32,13"
2017	2017-09-15T04:00:00.000Z	652	6	STEELES AVE W	HIGHWAY 27  N	200 m East of	Major Arterial	Etobicoke York	43.755641	-79.61288	Mid-Block	Non Intersection	No Control	Clear	Daylight	Dry	Fatal	Turning Movement	Passenger	55 to 59	Fatal	41	 	 	 	 	 	 	 	 	 	 	 	 	 	Yes	 	Yes		 	Yes	Yes	Yes	 	 	 	23
2010	2010-01-18T05:00:00.000Z	655	6	MOUNT PLEASANT RD	EGLINTON AVE E	 	Major Arterial	Toronto and East York	43.708445	-79.39019	Intersection	At Intersection	Traffic Signal	Clear	Dark	Dry	Fatal	Pedestrian Collisions	Pedestrian	60 to 64	Fatal	4	South	Other	 	 	 	Pedestrian involved in a collision with transit vehicle anywhere along roadway	Crossing with right of way	Normal	 	 	 	Yes	 	 	 	 		 	 	 	Yes	 	 	 	53
2016	2016-06-22T04:00:00.000Z	655	6	DYNEVOR RD	KIRKNEWTON RD	 	Local	Toronto and East York	43.691016	-79.450549	Mid-Block	Non Intersection	No Control	Clear	Daylight	Dry	Fatal	Pedestrian Collisions	Pedestrian	65 to 69	Fatal	39	Unknown	 	 	 	 	Pedestrian hit at mid-block	Other	Normal	 	 	 	Yes	 	Yes	 	 		 	Yes	 	 	 	 	 	13
2009	2009-10-13T04:00:00.000Z	656	6	KENNEDY RD	ELLESMERE RD	 	Major Arterial	Scarborough	43.765745	-79.28109	Intersection	 	Traffic Signal	Rain	Dawn	Wet	Fatal	SMV Other	Passenger	35 to 39	Fatal	29	 	Other	 	 	 	 	 	 	 	 	 	 	 	Yes	 	 		 	Yes	 	 	 	 	 	41
2010	2010-01-20T05:00:00.000Z	700	7	DUFFERIN ST	PRESTON RD	 	Major Arterial	Toronto and East York	43.691345	-79.44849	Mid-Block	At Intersection	No Control	Clear	Dark	Dry	Fatal	Pedestrian Collisions	Pedestrian	50 to 54	Fatal	5	East	Other	 	 	 	Pedestrian hit at mid-block	Running onto Roadway	Unknown	 	 	 	Yes	 	Yes	 	 		 	Yes	 	 	 	 	 	13
2010	2010-07-31T04:00:00.000Z	700	7	GRANTBROOK ST	CHARLTON BLVD	 	Collector	North York	43.781245	-79.43289	Intersection	At Intersection	Stop Sign	Clear	Daylight	Dry	Fatal	Angle	Passenger	25 to 29	Fatal	27	 	Other	 	 	 	 	 	 	 	 	 	 	 	Yes	 	 		 	Yes	Yes	Yes	 	Yes	 	32
2011	2011-12-21T05:00:00.000Z	706	7	JANE ST	DRIFTWOOD AVE	 	Major Arterial	Etobicoke York	43.765898	-79.519672	Intersection	At Intersection	Traffic Signal	Rain	"Dark, artificial"	Wet	Fatal	Pedestrian Collisions	Pedestrian	25 to 29	Fatal	34	East	Other	 	 	 	Vehicle turns left while ped crosses with ROW at inter.	Crossing with right of way	Normal	 	 	 	Yes	 	 	 	 		 	 	 	Yes	 	 	 	31
2018	2018-09-26T04:00:00.000Z	709	7	ST CLAIR AVE E	JEANETTE ST	 	Minor Arterial	Scarborough	43.719565	-79.247051	Intersection	At Intersection	Traffic Signal	Clear	Daylight	Dry	Fatal	Pedestrian Collisions	Pedestrian	60 to 64	Fatal	49	North	 	 	 	 	Vehicle is going straight thru inter.while ped cross with ROW	Crossing with right of way	Unknown	 	 	 	Yes	 	Yes	 	 		 	 	 	Yes	Yes	 	 	41
2013	2013-10-16T04:00:00.000Z	710	7	SPADINA Ave	DUNDAS St W	 	Major Arterial	Toronto and East York	43.652507	-79.397853	Mid-Block	 	No Control	Clear	Daylight	Wet	Fatal	Cyclist Collisions	Cyclist	25 to 29	Fatal	49	North	Bicycle	Going Ahead	 	 	 	 	 	Cyclist and Driver travelling in same direction. One vehicle sideswipes the other.	Lost control	Normal	 	Yes	 	 	Yes		 	 	 	 	 	 	 	"14,52"
2016	2016-12-06T05:00:00.000Z	712	7	BATHURST ST	REINER RD	 	Major Arterial	North York	43.752669	-79.437747	Mid-Block	At Intersection	No Control	Clear	Daylight	Dry	Fatal	Pedestrian Collisions	Pedestrian	85 to 89	Fatal	76	East	 	 	 	 	Pedestrian hit at mid-block	"Crossing, no Traffic Control"	Unknown	 	 	 	Yes	 	Yes	 	 		 	 	 	 	 	 	 	32
2017	2017-07-31T04:00:00.000Z	713	7	SHERBOURNE ST	DUNDAS ST E	 	Major Arterial	Toronto and East York	43.658221	-79.37099	Intersection	At Intersection	Traffic Signal	Clear	Daylight	Dry	Fatal	Pedestrian Collisions	Pedestrian	70 to 74	Fatal	33	Unknown	 	 	 	 	Pedestrian hit on sidewalk or shoulder	On Sidewalk or Shoulder	Normal	 	 	 	Yes	 	Yes	 	 		 	 	Yes	Yes	 	 	 	51
2009	2009-10-23T04:00:00.000Z	715	7	FINCH AVE E	BLACKBIRD GT	 	Minor Arterial	Scarborough	43.816945	-79.22429	Intersection	At Intersection	No Control	Rain	Dark	Wet	Fatal	Pedestrian Collisions	Pedestrian	60 to 64	Fatal	36	North	Other	 	 	 	Vehicle is going straight thru inter.while ped cross without ROW	"Crossing, no Traffic Control"	Inattentive	 	 	 	Yes	 	Yes	 	 		 	 	 	 	 	 	 	42
2017	2017-01-03T05:00:00.000Z	717	7	LOWER SHERBOURNE ST	THE ESPLANADE	 	Minor Arterial	Toronto and East York	43.648974	-79.367259	Intersection	At Intersection	Traffic Signal	Rain	Dark	Wet	Fatal	Pedestrian Collisions	Pedestrian	80 to 84	Fatal	1	West	 	 	 	 	Vehicle is going straight thru inter.while ped cross without ROW	Crossing without right of way	Normal	 	 	 	Yes	 	Yes	 	 		 	 	 	 	 	 	 	51
2008	2008-11-11T05:00:00.000Z	720	7	PHARMACY AVE	STEELES AVE E	 	Major Arterial	Scarborough	43.816847	-79.336452	Intersection	At Intersection	Traffic Signal	Clear	Daylight	Dry	Fatal	Pedestrian Collisions	Pedestrian	55 to 59	Fatal	52	West	Other	 	 	 	Vehicle turns right while ped crosses with ROW at inter.	Crossing with right of way	Unknown	 	 	 	Yes	 	 	 	 		 	 	 	Yes	 	 	 	42
2013	2013-11-08T05:00:00.000Z	725	7	LAWRENCE AVE E	BENNETT RD	 	Minor Arterial	Scarborough	43.772868	-79.166332	Intersection	Intersection Related	Traffic Signal	Clear	Daylight	Dry	Fatal	Pedestrian Collisions	Pedestrian	25 to 29	Fatal	52	South	 	 	 	 	Vehicle turns left while ped crosses with ROW at inter.	Crossing with right of way	Normal	 	 	 	Yes	 	Yes	 	 		 	 	 	Yes	 	 	 	43
2014	2014-03-06T05:00:00.000Z	735	7	PRINCE EDWARD DR N	SHAND AVE	 	Collector	Etobicoke York	43.65729	-79.509113	Intersection	 	No Control	Snow	Daylight	Slush	Fatal	SMV Other	Driver	50 to 54	Fatal	6	South	"Automobile, Station Wagon"	Pulling Onto Shoulder or towardCurb	Lost control	Unknown	 	 	 	 	 	 	 	 	Yes	 	 		 	 	 	 	 	 	 	22
2015	2015-09-03T04:00:00.000Z	736	7	PARK LAWN RD	LAKE SHORE BLVD W	 	Major Arterial	Etobicoke York	43.623171	-79.481792	Mid-Block	 	No Control	Clear	Daylight	Dry	Fatal	Pedestrian Collisions	Pedestrian	70 to 74	Fatal	41	West	 	 	 	 	Pedestrian hit at mid-block	"Crossing, no Traffic Control"	Normal	 	 	 	Yes	 	 	 	Yes		 	 	 	 	 	 	 	22
2008	2008-05-01T04:00:00.000Z	738	7	ST CLAIR AVE E	JEANETTE ST	 	Minor Arterial	Scarborough	43.719645	-79.24709	Intersection	At Intersection	Stop Sign	Clear	Daylight	Dry	Fatal	Pedestrian Collisions	Pedestrian	50 to 54	Fatal	16	North	Other	 	 	 	Vehicle turns left while ped crosses without ROW at inter.	"Crossing, no Traffic Control"	Normal	 	 	 	Yes	 	 	 	Yes		 	 	 	 	 	 	 	41
2012	2012-06-14T04:00:00.000Z	738	7	ADELAIDE ST W	BRANT ST	 	Major Arterial	Toronto and East York	43.646245	-79.39819	Intersection	At Intersection	Traffic Signal	Clear	Daylight	Dry	Fatal	Pedestrian Collisions	Pedestrian	30 to 34	Fatal	18	East	Other	 	 	 	Vehicle turns left while ped crosses with ROW at inter.	Crossing with right of way	Normal	 	 	 	Yes	 	Yes	 	 		 	 	 	 	 	 	 	14
2010	2010-11-19T05:00:00.000Z	744	7	LOWER SPADINA AVE	LAKE SHORE BLVD W	 	Expressway	Toronto and East York	43.638445	-79.39219	Intersection	At Intersection	Traffic Signal	Clear	Daylight	Dry	Fatal	Cyclist Collisions	Cyclist	60 to 64	Fatal	36	East	Bicycle	Pulling Away from Shoulder or Curb	 	 	 	 	 	"Cyclist without ROW rides into path of motorist at inter, lnwy, dwy-Cyclist not turn."	Disobeyed Traffic Control	Normal	 	Yes	 	 	 		 	 	 	 	 	 	 	"14,52"
2008	2008-05-30T04:00:00.000Z	746	7	BAY ST	YORKVILLE AVE	 	Major Arterial	Toronto and East York	43.671345	-79.39019	Intersection	 	Traffic Signal	Clear	Daylight	Dry	Fatal	Pedestrian Collisions	Pedestrian	70 to 74	Fatal	22	East	Other	 	 	 	Pedestrian involved in a collision with transit vehicle anywhere along roadway	Crossing without right of way	Unknown	 	 	 	Yes	 	Yes	 	 		 	 	 	 	 	 	 	53
2012	2012-12-20T05:00:00.000Z	748	7	SHEPPARD AVE E	ALLANFORD RD	 	Major Arterial	Scarborough	43.782345	-79.29219	Mid-Block	 	No Control	Clear	Daylight	Dry	Fatal	Pedestrian Collisions	Pedestrian	65 to 69	Fatal	43	Unknown	Other	 	 	 	Pedestrian hit at mid-block	"Crossing, no Traffic Control"	Normal	 	 	 	Yes	 	Yes	 	 		 	 	 	 	 	 	 	42
2015	2015-01-25T05:00:00.000Z	756	7	COLLEGE ST	BROCK AVE	2 m West of	Minor Arterial	Toronto and East York	43.651801	-79.436343	Intersection	At Intersection	Traffic Signal	Clear	Daylight	Dry	Fatal	Pedestrian Collisions	Pedestrian	55 to 59	Fatal	2	South	 	 	 	 	Vehicle turns left while ped crosses with ROW at inter.	Crossing with right of way	Medical or Physical Disability	 	 	 	Yes	 	Yes	 	 		 	 	 	Yes	 	 	 	11
2013	2013-08-19T04:00:00.000Z	759	7	ROYAL YORK RD	LAWRENCE AVE W	 	Minor Arterial	Etobicoke York	43.696154	-79.532726	Intersection	 	Traffic Signal	Clear	Daylight	Dry	Fatal	Angle	Driver	60 to 64	Fatal	33	East	"Automobile, Station Wagon"	Going Ahead	Driving Properly	Normal	 	 	 	 	 	 	 	 	Yes	 	 		 	Yes	Yes	Yes	Yes	 	 	23
2013	2013-09-03T04:00:00.000Z	800	8	SENTINEL RD	LAMBERTON BLVD	 	Collector	Etobicoke York	43.753844	-79.499591	Intersection	At Intersection	Stop Sign	Clear	Daylight	Dry	Fatal	Pedestrian Collisions	Pedestrian	10 to 14	Fatal	37	West	 	 	 	 	Vehicle turns left while ped crosses with ROW at inter.	Crossing with right of way	Normal	 	 	 	Yes	 	 	 	Yes		 	 	 	Yes	 	 	 	31
2018	2018-05-16T04:00:00.000Z	800	8	JONES AVE	DUNDAS ST E	 	Minor Arterial	Toronto and East York	43.666098	-79.334277	Intersection	At Intersection	Traffic Signal	Clear	Daylight	Dry	Fatal	Cyclist Collisions	Cyclist	50 to 54	Fatal	25	West	Bicycle	Going Ahead	 	 	 	 	 	Motorist turning right on green or amber at signalized intersection strikes cyclist.	Driving Properly	Normal	 	Yes	 	 	Yes		 	 	 	Yes	 	 	 	55
2012	2012-05-07T04:00:00.000Z	801	8	STEELES AVE E	BIRCHMOUNT RD	 	Major Arterial	Scarborough	43.821345	-79.31689	Intersection	At Intersection	Traffic Signal	Clear	Daylight	Dry	Fatal	Pedestrian Collisions	Pedestrian	30 to 34	Fatal	13	South	Other	 	 	 	Vehicle is going straight thru inter.while ped cross with ROW	Crossing with right of way	Normal	 	 	 	Yes	 	Yes	 	 		 	Yes	 	 	 	 	 	42
2008	2008-09-10T04:00:00.000Z	806	8	TRETHEWEY DR	TEDDER ST	 	Minor Arterial	Etobicoke York	43.697345	-79.49899	Intersection	At Intersection	No Control	Clear	Daylight	Dry	Fatal	Cyclist Collisions	Cyclist	50 to 54	Fatal	39	West	Bicycle	 	 	 	 	 	 	Motorist turned left across cyclists path.	Driving Properly	Normal	 	Yes	Yes	 	 		 	 	Yes	Yes	 	 	 	12
2014	2014-11-04T05:00:00.000Z	807	8	ORTON PARK RD	SLAN AVE	 	Minor Arterial	Scarborough	43.777968	-79.211902	Mid-Block	 	No Control	Clear	Daylight	Dry	Fatal	SMV Other	Driver	25 to 29	Fatal	37	North	"Automobile, Station Wagon"	Going Ahead	Lost control	Unknown	 	 	 	 	 	 	 	 	Yes	 	 		 	 	Yes	Yes	 	 	 	43
2012	2012-08-25T04:00:00.000Z	810	8	CARLTON ST	SHERBOURNE ST	 	Minor Arterial	Toronto and East York	43.663245	-79.37259	Mid-Block	 	No Control	Clear	Daylight	Dry	Fatal	Pedestrian Collisions	Pedestrian	60 to 64	Fatal	28	North	Other	 	 	 	Pedestrian hit at mid-block	Coming From Behind Parked Vehicle	Unknown	 	 	 	Yes	 	Yes	 	 		 	 	 	 	 	 	 	51
2016	2016-11-14T05:00:00.000Z	814	8	ARAGON AVE	SHEPPARD AVE E	 	Major Arterial	Scarborough	43.77949	-79.304355	Intersection	At Intersection	Traffic Signal	Clear	Daylight	Dry	Fatal	Pedestrian Collisions	Pedestrian	75 to 79	Fatal	72	East	 	 	 	 	Vehicle turns right while ped crosses with ROW at inter.	Crossing with right of way	Normal	 	 	 	Yes	 	Yes	 	 		 	 	 	Yes	 	 	 	42
2008	2008-10-31T04:00:00.000Z	817	8	HIGHWAY 2A  E	LAWSON RD	 	Expressway	Scarborough	43.788645	-79.15869	Mid-Block	 	No Control	Clear	Daylight	Dry	Fatal	SMV Other	Driver	55 to 59	Fatal	50	East	"Automobile, Station Wagon"	Going Ahead	Driving Properly	Medical or Physical Disability	 	 	 	 	 	 	 	 	Yes	 	 		 	 	 	 	 	 	Yes	43
2010	2010-11-17T05:00:00.000Z	818	8	DUNDAS ST W	KENNETH AVE	 	Minor Arterial	Toronto and East York	43.662445	-79.45589	Intersection	 	No Control	Rain	Daylight	Wet	Fatal	Pedestrian Collisions	Pedestrian	50 to 54	Fatal	35	West	Other	 	 	 	Vehicle is going straight thru inter.while ped cross without ROW	"Crossing, no Traffic Control"	Unknown	 	 	 	Yes	 	 	 	Yes		 	 	 	 	 	 	 	11
2010	2010-06-06T04:00:00.000Z	822	8	UNIVERSITY AVE	ORDE ST	 	Major Arterial	Toronto and East York	43.658744	-79.389987	Intersection	 	No Control	Rain	Daylight	Wet	Fatal	Pedestrian Collisions	Pedestrian	40 to 44	Fatal	22	West	Other	 	 	 	Vehicle is going straight thru inter.while ped cross without ROW	"Crossing, no Traffic Control"	Unknown	 	 	 	Yes	 	 	 	 		 	 	 	 	 	 	 	52
2015	2015-05-22T04:00:00.000Z	822	8	DON MILLS RD	GREEN BELT DR	 	Major Arterial	North York	43.727645	-79.340846	Intersection	Intersection Related	Traffic Signal	Clear	Daylight	Dry	Fatal	Pedestrian Collisions	Pedestrian	45 to 49	Fatal	22	Unknown	 	 	 	 	Pedestrian hit on sidewalk or shoulder	On Sidewalk or Shoulder	Normal	 	 	 	Yes	 	Yes	 	 		 	 	 	Yes	 	 	 	33
2015	2015-05-19T04:00:00.000Z	823	8	ROXBOROUGH ST E	WRENTHAM PL	 	Collector	Toronto and East York	43.679423	-79.382312	Intersection	 	Stop Sign	Clear	"Daylight, artificial"	Dry	Fatal	Cyclist Collisions	Cyclist	75 to 79	Fatal	26	North	Bicycle	Turning Left	 	 	 	 	 	Cyclist turned left across motorists path.	Improper Turn	Unknown	 	Yes	Yes	 	 		 	 	 	 	 	 	 	53
2015	2015-11-14T05:00:00.000Z	825	8	1996 BATHURST ST	 	 	Major Arterial	Toronto and East York	43.699485	-79.424945	Mid-Block	Non Intersection	No Control	Clear	Daylight	Dry	Fatal	Pedestrian Collisions	Pedestrian	85 to 89	Fatal	65	 	"Automobile, Station Wagon"	 	 	 	Pedestrian hit at parking lot	Other	Normal	 	 	 	Yes	 	Yes	 	 		 	 	 	 	 	 	 	13
2014	2014-06-16T04:00:00.000Z	827	8	BROADVIEW AVE	FAIRVIEW BLVD	 	Minor Arterial	Toronto and East York	43.675116	-79.357845	Mid-Block	 	No Control	Rain	Daylight	Wet	Fatal	SMV Other	Motorcycle Driver	45 to 49	Fatal	12	North	Motorcycle	Going Ahead	Driving Properly	Unknown	 	 	 	 	 	 	 	 	 	Yes	 		 	 	 	 	 	 	 	55
2011	2011-02-10T05:00:00.000Z	828	8	DUNDAS ST W	NEILSON DR	 	Major Arterial	Etobicoke York	43.627345	-79.56239	Intersection	At Intersection	Traffic Signal	Clear	Daylight	Dry	Fatal	Pedestrian Collisions	Pedestrian	55 to 59	Fatal	5	South	Other	 	 	 	Vehicle turns left while ped crosses with ROW at inter.	Crossing with right of way	Normal	 	 	 	Yes	 	Yes	 	 		 	Yes	 	Yes	 	 	 	22
2012	2012-09-11T04:00:00.000Z	840	8	GLENGROVE AVE	MARLEE AVE	 	Minor Arterial	North York	43.710745	-79.44449	Intersection	At Intersection	Stop Sign	Clear	Daylight	Dry	Fatal	Angle	Motorcycle Driver	20 to 24	Fatal	30	North	Motorcycle	Going Ahead	Speed too Fast For Condition	Normal	 	 	 	 	 	 	 	 	Yes	Yes	 		 	 	Yes	Yes	 	 	 	13
2017	2017-11-02T04:00:00.000Z	840	8	161 THE WEST MALL	 	 	Minor Arterial	Etobicoke York	43.621218	-79.560214	Mid-Block	Non Intersection	No Control	 	Daylight	 	Fatal	Approaching	Driver	35 to 39	Fatal	52	North	"Automobile, Station Wagon"	Going Ahead	Lost control	Normal	 	 	 	 	 	 	 	 	Yes	 	 		 	 	Yes	Yes	 	 	 	22
2014	2014-12-18T05:00:00.000Z	843	8	6030 BATHURST ST	 	 	Major Arterial	North York	43.788577	-79.446666	Mid-Block	 	No Control	Clear	Daylight	Dry	Fatal	Pedestrian Collisions	Pedestrian	75 to 79	Fatal	50	East	 	 	 	 	Pedestrian hit at mid-block	Running onto Roadway	Inattentive	 	 	 	Yes	 	Yes	 	 		 	Yes	 	 	 	 	 	32
2009	2009-11-17T05:00:00.000Z	845	8	GREENWIN VILLAGE RD	VILLAGE GT	 	Collector	North York	43.792445	-79.44049	Intersection	At Intersection	Stop Sign	Clear	Daylight	Dry	Fatal	Pedestrian Collisions	Pedestrian	65 to 69	Fatal	40	North	Other	 	 	 	Vehicle turns left while ped crosses without ROW at inter.	"Crossing, no Traffic Control"	Normal	 	 	 	Yes	 	Yes	 	 		 	 	 	 	 	 	 	32
2013	2013-09-30T04:00:00.000Z	857	8	LAKE SHORE BLVD W	NET DR	 	Expressway	Toronto and East York	43.634032	-79.438045	Intersection	 	No Control	Clear	Daylight	Dry	Fatal	Turning Movement	Passenger	55 to 59	Fatal	46	 	 	 	 	 	 	 	 	 	 	 	 	 	Yes	 	 		 	Yes	 	 	 	 	 	14
2013	2013-04-16T04:00:00.000Z	900	9	HILLHURST BLVD	AVENUE RD	 	Major Arterial	North York	43.712046	-79.411693	Intersection	At Intersection	Traffic Signal	Clear	Daylight	Dry	Fatal	SMV Other	Driver	55 to 59	Fatal	11	East	"Automobile, Station Wagon"	Going Ahead	Lost control	Medical or Physical Disability	 	 	 	 	 	 	 	 	Yes	 	 		 	Yes	 	 	 	 	Yes	53
2009	2009-10-31T04:00:00.000Z	901	9	KEELE ST	STEELES AVE W	 	Major Arterial	North York	43.781545	-79.49449	Intersection	At Intersection	Traffic Signal	Rain	Daylight	Wet	Fatal	Turning Movement	Driver	15 to 19	Fatal	38	South	"Automobile, Station Wagon"	Going Ahead	Disobeyed Traffic Control	Inattentive	 	 	 	 	 	 	 	 	Yes	 	 		 	Yes	 	Yes	Yes	 	 	31
2016	2016-03-29T04:00:00.000Z	901	9	FINCH AVE E	SKYMARK DR	 	Major Arterial	North York	43.793151	-79.352275	Intersection	Intersection Related	Traffic Signal	Clear	Daylight	Dry	Fatal	Pedestrian Collisions	Pedestrian	75 to 79	Fatal	19	North	 	 	 	 	Vehicle turns left while ped crosses without ROW at inter.	"Crossing, no Traffic Control"	Normal	 	 	 	Yes	 	Yes	 	 		 	 	 	 	 	 	 	33
2011	2011-08-05T04:00:00.000Z	902	9	GREENWOOD AVE	PLAINS RD	 	Collector	Toronto and East York	43.693845	-79.33849	Intersection	At Intersection	Stop Sign	Clear	Daylight	Dry	Fatal	Cyclist Collisions	Cyclist	80 to 84	Fatal	16	West	Bicycle	Going Ahead	 	 	 	 	 	"Motorist without ROW drives into path of cyclist at inter, lnwy, dwy-Driver not turn."	Driving Properly	Normal	 	Yes	Yes	 	 		 	 	 	Yes	 	 	 	54
2016	2016-04-08T04:00:00.000Z	902	9	ST CLEMENTS AVE	CALDOW RD	 	Local	North York	43.708262	-79.42094	Intersection	Intersection Related	Stop Sign	Clear	Daylight	Dry	Fatal	Angle	Driver	35 to 39	Fatal	21	East	"Automobile, Station Wagon"	Going Ahead	Disobeyed Traffic Control	Unknown	 	 	 	 	 	 	 	 	Yes	 	 		 	 	Yes	Yes	 	 	 	53
2012	2012-01-26T05:00:00.000Z	903	9	DIXON RD	ISLINGTON AVE	 	Major Arterial	Etobicoke York	43.697045	-79.54669	Intersection	At Intersection	Traffic Signal	Clear	Daylight	Wet	Fatal	Turning Movement	Passenger	65 to 69	Fatal	3	 	Other	 	 	 	 	 	 	 	 	 	 	 	Yes	 	 		 	Yes	 	Yes	 	 	 	23
2016	2016-08-19T04:00:00.000Z	904	9	FINCH AVE E	SKYMARK DR	 	Major Arterial	North York	43.793151	-79.352275	Intersection	Intersection Related	Traffic Signal	Clear	Daylight	Dry	Fatal	Pedestrian Collisions	Pedestrian	80 to 84	Fatal	53	North	 	 	 	 	Pedestrian hit at mid-block	"Crossing, no Traffic Control"	Other	 	 	 	Yes	 	Yes	 	 		 	Yes	 	 	 	 	 	33
2017	2017-10-18T04:00:00.000Z	906	9	COWAN AVE	KING  ST W	 	Major Arterial	Toronto and East York	43.63795	-79.431827	Intersection	At Intersection	Stop Sign	Clear	Daylight	Dry	Fatal	Cyclist Collisions	Cyclist	35 to 39	Fatal	50	East	Bicycle	Going Ahead	 	 	 	 	 	"Motorist without ROW drives into path of cyclist at inter, lnwy, dwy-Driver not turn."	Driving Properly	Normal	 	Yes	Yes	 	 		 	 	 	Yes	 	 	 	14
